{
"type": "FeatureCollection",
"name": "covidLabs",
"crs": { "type": "name", "properties": { "name": "urn:ogc:def:crs:OGC:1.3:CRS84" } },
"features": [
{ "type": "Feature", "properties": { "id": 1, "NAME": "Kinder Womens Hospital and Fertility Centre", "Address": "Kinder Womens Hospital and Fertility Centre  Cherthala", "District": "Alappuzha", "Test Type": "ANTIGEN", "FullAddress": "Kinder Womens Hospital and Fertility Centre  Cherthala  Alappuzha", "Lab Type": "Private Lab" }, "geometry": { "type": "Point", "coordinates": [ 76.3412744, 9.6631736 ] } },
{ "type": "Feature", "properties": { "id": 2, "NAME": "Health Park Medical Centre", "Address": "Health Park Medical Centre  Alappuzha", "District": "Alappuzha", "Test Type": "ANTIGEN", "FullAddress": "Health Park Medical Centre  Alappuzha", "Lab Type": "Private Lab" }, "geometry": { "type": "Point", "coordinates": [ 76.3366629, 9.4912659 ] } },
{ "type": "Feature", "properties": { "id": 3, "NAME": "Sankar's Healthcare Scans & Diagnostics", "Address": "Sankar's Healthcare Scans & Diagnostics  Kannampallil Building  Near Medical College  Vandanam  Alappuzha", "District": "Alappuzha", "Test Type": "ANTIGEN", "FullAddress": "Sankar's Healthcare Scans & Diagnostics  Kannampallil Building  Near Medical College  Vandanam  Alappuzha  Alappuzha", "Lab Type": "Private Lab" }, "geometry": { "type": "Point", "coordinates": [ 76.330781, 10.315467 ] } },
{ "type": "Feature", "properties": { "id": 4, "NAME": "Providence Hospital", "Address": "Providence Hospital  Thumpoly  Alappuzha", "District": "Alappuzha", "Test Type": "ANTIGEN", "FullAddress": "Providence Hospital  Thumpoly  Alappuzha  Alappuzha", "Lab Type": "Private Lab" }, "geometry": { "type": "Point", "coordinates": [ 76.327767, 9.526216 ] } },
{ "type": "Feature", "properties": { "id": 5, "NAME": "Metro Diagnostic Centre", "Address": "Metro Diagnostic Centre AVA Sona Tower  Near General Hospital  Alappuzha", "District": "Alappuzha", "Test Type": "ANTIGEN", "FullAddress": "Metro Diagnostic Centre AVA Sona Tower  Near General Hospital  Alappuzha  Alappuzha", "Lab Type": "Private Lab" }, "geometry": { "type": "Point", "coordinates": [ 76.415145, 9.452173 ] } },
{ "type": "Feature", "properties": { "id": 6, "NAME": "KVM Superspeciality Hospital", "Address": "KVM Superspeciality Hospital  Cherthala  Alappuzha", "District": "Alappuzha", "Test Type": "ANTIGEN", "FullAddress": "KVM Superspeciality Hospital  Cherthala  Alappuzha  Alappuzha", "Lab Type": "Private Lab" }, "geometry": { "type": "Point", "coordinates": [ 76.52455, 9.28577 ] } },
{ "type": "Feature", "properties": { "id": 7, "NAME": "Aswathy Fully Automated Lab", "Address": "Aswathy Fully Automated Lab  General Hospital  Alappuzha", "District": "Alappuzha", "Test Type": "ANTIGEN", "FullAddress": "Aswathy Fully Automated Lab  General Hospital  Alappuzha", "Lab Type": "Private Lab" }, "geometry": { "type": "Point", "coordinates": [ 76.3397167, 9.4902917 ] } },
{ "type": "Feature", "properties": { "id": 8, "NAME": "New Microlab Laboratories", "Address": "New Microlab Laboratories Opp Govt Girls H.S  Althara Junction Chengannur", "District": "Alappuzha", "Test Type": "ANTIGEN", "FullAddress": "New Microlab Laboratories Opp Govt Girls H.S  Althara Junction Chengannur  Alappuzha", "Lab Type": "Private Lab" }, "geometry": { "type": "Point", "coordinates": [ 76.584263, 9.270202 ] } },
{ "type": "Feature", "properties": { "id": 9, "NAME": "Doctors Diagnostic Clinic", "Address": "Doctors Diagnostic Clinic  kumbalath Building  Haripad  Kerala", "District": "Alappuzha", "Test Type": "ANTIGEN", "FullAddress": "Doctors Diagnostic Clinic  kumbalath Building  Haripad  Kerala  Alappuzha", "Lab Type": "Private Lab" }, "geometry": { "type": "Point", "coordinates": [ 76.331452, 9.95061 ] } },
{ "type": "Feature", "properties": { "id": 10, "NAME": "STM Lab", "Address": "STM Lab  Vandanam  Alappuzha", "District": "Alappuzha", "Test Type": "ANTIGEN", "FullAddress": "STM Lab  Vandanam  Alappuzha  Alappuzha", "Lab Type": "Private Lab" }, "geometry": { "type": "Point", "coordinates": [ 76.338066, 9.684106 ] } },
{ "type": "Feature", "properties": { "id": 11, "NAME": "HUDA TRUST HOSPITAL", "Address": "HUDA TRUST HOSPITAL  KUMARAPURAM P.O  HARIPAD  Alappuzha", "District": "Alappuzha", "Test Type": "ANTIGEN", "FullAddress": "HUDA TRUST HOSPITAL  KUMARAPURAM P.O  HARIPAD  Alappuzha  Alappuzha", "Lab Type": "Private Lab" }, "geometry": { "type": "Point", "coordinates": [ 76.415145, 9.452173 ] } },
{ "type": "Feature", "properties": { "id": 12, "NAME": "Sahrudaya Hospital", "Address": "Sahrudaya Hospital  Thathampally P.O  Alappuzha", "District": "Alappuzha", "Test Type": "ANTIGEN", "FullAddress": "Sahrudaya Hospital  Thathampally P.O  Alappuzha  Alappuzha", "Lab Type": "Private Lab" }, "geometry": { "type": "Point", "coordinates": [ 76.3418646, 9.5053603 ] } },
{ "type": "Feature", "properties": { "id": 13, "NAME": "Ebenezer Hospital", "Address": "Ebenezer Hospital  Kayamkulam  Alappuzha", "District": "Alappuzha", "Test Type": "ANTIGEN", "FullAddress": "Ebenezer Hospital  Kayamkulam  Alappuzha  Alappuzha", "Lab Type": "Private Lab" }, "geometry": { "type": "Point", "coordinates": [ 76.4997033, 9.1735507 ] } },
{ "type": "Feature", "properties": { "id": 14, "NAME": "Lourdes Matha Hospital", "Address": "Lourdes Matha Hospital  Pacha  Alappuzha", "District": "Alappuzha", "Test Type": "ANTIGEN", "FullAddress": "Lourdes Matha Hospital  Pacha  Alappuzha  Alappuzha", "Lab Type": "Private Lab" }, "geometry": { "type": "Point", "coordinates": [ 76.331265, 9.465943 ] } },
{ "type": "Feature", "properties": { "id": 15, "NAME": "Midas Scan and laboratory", "Address": "Midas Scan and laboratory  General Hospital Junction  Alappuzha", "District": "Alappuzha", "Test Type": "ANTIGEN", "FullAddress": "Midas Scan and laboratory  General Hospital Junction  Alappuzha  Alappuzha", "Lab Type": "Private Lab" }, "geometry": { "type": "Point", "coordinates": [ 76.339556, 9.682944 ] } },
{ "type": "Feature", "properties": { "id": 16, "NAME": "SANKAR'S HEALTHCARE SCANS & DIAGNOSTICS", "Address": "SANKAR'S HEALTHCARE SCANS & DIAGNOSTICS  Sankars Bolla Tower  Near General Hospital  Alappuzha", "District": "Alappuzha", "Test Type": "ANTIGEN", "FullAddress": "SANKAR'S HEALTHCARE SCANS & DIAGNOSTICS  Sankars Bolla Tower  Near General Hospital  Alappuzha  Alappuzha", "Lab Type": "Private Lab" }, "geometry": { "type": "Point", "coordinates": [ 76.330781, 10.315467 ] } },
{ "type": "Feature", "properties": { "id": 17, "NAME": "Chethana Janakeeya Lab", "Address": "Chethana Janakeeya Lab  TDMC P O  Alappuzha", "District": "Alappuzha", "Test Type": "ANTIGEN", "FullAddress": "Chethana Janakeeya Lab  TDMC P O  Alappuzha  Alappuzha", "Lab Type": "Private Lab" }, "geometry": { "type": "Point", "coordinates": [ 76.313945, 9.630228 ] } },
{ "type": "Feature", "properties": { "id": 18, "NAME": "Biovision India Specialty Diagnostic Centre", "Address": "Biovision India Specialty Diagnostic Centre  Thazhakkara  Mavelikkara", "District": "Alappuzha", "Test Type": "ANTIGEN", "FullAddress": "Biovision India Specialty Diagnostic Centre  Thazhakkara  Mavelikkara", "Lab Type": "Private Lab" }, "geometry": { "type": "Point", "coordinates": [ 76.5515327, 9.254545 ] } },
{ "type": "Feature", "properties": { "id": 19, "NAME": "Mahajubilee Memorial Hospital", "Address": "Mahajubilee Memorial Hospital  Edathua", "District": "Alappuzha", "Test Type": "ANTIGEN", "FullAddress": "Mahajubilee Memorial Hospital  Edathua  Alappuzha", "Lab Type": "Private Lab" }, "geometry": { "type": "Point", "coordinates": [ 76.611486, 9.319854 ] } },
{ "type": "Feature", "properties": { "id": 20, "NAME": "St. Sebastians Visitisation Hospital", "Address": "St. Sebastians Visitisation Hospital  Arthunkal  Cherthala", "District": "Alappuzha", "Test Type": "ANTIGEN", "FullAddress": "St. Sebastians Visitisation Hospital  Arthunkal  Cherthala  Alappuzha", "Lab Type": "Private Lab" }, "geometry": { "type": "Point", "coordinates": [ 76.30434, 9.646277 ] } },
{ "type": "Feature", "properties": { "id": 21, "NAME": "Sanjivani Multispecialty Hospital", "Address": "Sanjivani Multispecialty Hospital  situated in Kollakadavu  Chengannur  Alappuzha", "District": "Alappuzha", "Test Type": "ANTIGEN", "FullAddress": "Sanjivani Multispecialty Hospital  situated in Kollakadavu  Chengannur  Alappuzha  Alappuzha", "Lab Type": "Private Lab" }, "geometry": { "type": "Point", "coordinates": [ 76.59617, 9.259224 ] } },
{ "type": "Feature", "properties": { "id": 22, "NAME": "Sree Narayana Medical Mission Hospital", "Address": "Sree Narayana Medical Mission Hospital  Cherthala  Alappuzha", "District": "Alappuzha", "Test Type": "ANTIGEN", "FullAddress": "Sree Narayana Medical Mission Hospital  Cherthala  Alappuzha  Alappuzha", "Lab Type": "Private Lab" }, "geometry": { "type": "Point", "coordinates": [ 76.3413481, 9.6744309 ] } },
{ "type": "Feature", "properties": { "id": 23, "NAME": "KERALA DIAGNOSTIC CENTRE", "Address": "KERALA DIAGNOSTIC CENTRE  KOSIA BUILDING  OPP:RAIBAN THEATRE  GENERAL HOSPITAL JUNCTION  ALAPPUZHA", "District": "Alappuzha", "Test Type": "ANTIGEN", "FullAddress": "KERALA DIAGNOSTIC CENTRE  KOSIA BUILDING  OPP:RAIBAN THEATRE  GENERAL HOSPITAL JUNCTION  ALAPPUZHA  Alappuzha", "Lab Type": "Private Lab" }, "geometry": { "type": "Point", "coordinates": [ 76.337986, 9.470125 ] } },
{ "type": "Feature", "properties": { "id": 24, "NAME": "POOCHAKKAL MEDICAL CENTRE", "Address": "POOCHAKKAL MEDICAL CENTRE  POOCHAKKAL P O  CHERTHALA  ALAPPUZHA", "District": "Alappuzha", "Test Type": "ANTIGEN", "FullAddress": "POOCHAKKAL MEDICAL CENTRE  POOCHAKKAL P O  CHERTHALA  ALAPPUZHA  Alappuzha", "Lab Type": "Private Lab" }, "geometry": { "type": "Point", "coordinates": [ 76.568905, 9.176441 ] } },
{ "type": "Feature", "properties": { "id": 25, "NAME": "KCM Hospital", "Address": "KCM Hospital  LS PO  Nooranad  Alappuzha", "District": "Alappuzha", "Test Type": "ANTIGEN", "FullAddress": "KCM Hospital  LS PO  Nooranad  Alappuzha", "Lab Type": "Private Lab" }, "geometry": { "type": "Point", "coordinates": [ 76.6245194, 9.175325 ] } },
{ "type": "Feature", "properties": { "id": 26, "NAME": "St Thomas Mission Hospital", "Address": "St Thomas Mission Hospital  Pallickal Po  Kattanam  Alappuzha", "District": "Alappuzha", "Test Type": "ANTIGEN", "FullAddress": "St Thomas Mission Hospital  Pallickal Po  Kattanam  Alappuzha  Alappuzha", "Lab Type": "Private Lab" }, "geometry": { "type": "Point", "coordinates": [ 76.581544, 9.168826 ] } },
{ "type": "Feature", "properties": { "id": 27, "NAME": "ASTER KOCHI", "Address": "ASTER KOCHI", "District": "Ernakulam", "Test Type": "ANTIGEN", "FullAddress": "ASTER KOCHI  Ernakulam", "Lab Type": "Private Lab" }, "geometry": { "type": "Point", "coordinates": [ 76.2766858008398, 10.03295025 ] } },
{ "type": "Feature", "properties": { "id": 28, "NAME": "Lakeshore Hospital", "Address": "Lakeshore Hospital  Ernakulam", "District": "Ernakulam", "Test Type": "ANTIGEN", "FullAddress": "Lakeshore Hospital  Ernakulam  Ernakulam", "Lab Type": "Private Lab" }, "geometry": { "type": "Point", "coordinates": [ 76.3174647, 9.9179841 ] } },
{ "type": "Feature", "properties": { "id": 29, "NAME": "AIMS Kochi", "Address": "AIMS Kochi", "District": "Ernakulam", "Test Type": "ANTIGEN", "FullAddress": "AIMS Kochi  Ernakulam", "Lab Type": "Private Lab" }, "geometry": { "type": "Point", "coordinates": [ 76.332486, 9.956297 ] } },
{ "type": "Feature", "properties": { "id": 30, "NAME": "Rajagiri Hospital Aluva", "Address": "Rajagiri Hospital Aluva", "District": "Ernakulam", "Test Type": "ANTIGEN", "FullAddress": "Rajagiri Hospital Aluva  Ernakulam", "Lab Type": "Private Lab" }, "geometry": { "type": "Point", "coordinates": [ 76.3882425458754, 10.08773905 ] } },
{ "type": "Feature", "properties": { "id": 31, "NAME": "DDRC", "Address": "DDRC  Kochi", "District": "Ernakulam", "Test Type": "ANTIGEN", "FullAddress": "DDRC  Kochi  Ernakulam", "Lab Type": "Private Lab" }, "geometry": { "type": "Point", "coordinates": [ 76.2735442205434, 9.9220467 ] } },
{ "type": "Feature", "properties": { "id": 32, "NAME": "Vijaya Kumara Menon Hospital", "Address": "Vijaya Kumara Menon Hospital  Ernakulam", "District": "Ernakulam", "Test Type": "ANTIGEN", "FullAddress": "Vijaya Kumara Menon Hospital  Ernakulam  Ernakulam", "Lab Type": "Private Lab" }, "geometry": { "type": "Point", "coordinates": [ 76.340715104977306, 9.9527732 ] } },
{ "type": "Feature", "properties": { "id": 33, "NAME": "Medical Trust Hospital", "Address": "Medical Trust Hospital  Ernakulam", "District": "Ernakulam", "Test Type": "ANTIGEN", "FullAddress": "Medical Trust Hospital  Ernakulam  Ernakulam", "Lab Type": "Private Lab" }, "geometry": { "type": "Point", "coordinates": [ 76.200566892214695, 10.1152829 ] } },
{ "type": "Feature", "properties": { "id": 34, "NAME": "POLAKULATH NARAYANAN RENAI MEDICITY", "Address": "POLAKULATH NARAYANAN RENAI MEDICITY  Kochi", "District": "Ernakulam", "Test Type": "ANTIGEN", "FullAddress": "POLAKULATH NARAYANAN RENAI MEDICITY  Kochi", "Lab Type": "Private Lab" }, "geometry": { "type": "Point", "coordinates": [ 76.3033111, 10.0077444 ] } },
{ "type": "Feature", "properties": { "id": 35, "NAME": "CIMAR Cochin Hospitals", "Address": "CIMAR Cochin Hospitals  Ernakulam", "District": "Ernakulam", "Test Type": "ANTIGEN", "FullAddress": "CIMAR Cochin Hospitals  Ernakulam  Ernakulam", "Lab Type": "Private Lab" }, "geometry": { "type": "Point", "coordinates": [ 76.296743, 10.0515389 ] } },
{ "type": "Feature", "properties": { "id": 36, "NAME": "SREE SUDHEENDRA MEDICAL MISSION ERNAKULAM", "Address": "SREE SUDHEENDRA MEDICAL MISSION ERNAKULAM", "District": "Ernakulam", "Test Type": "ANTIGEN", "FullAddress": "SREE SUDHEENDRA MEDICAL MISSION ERNAKULAM  Ernakulam", "Lab Type": "Private Lab" }, "geometry": { "type": "Point", "coordinates": [ 76.2832964, 9.9849328 ] } },
{ "type": "Feature", "properties": { "id": 37, "NAME": "Alpha ENT head&neck Research Institute", "Address": "Alpha ENT head&neck Research Institute  Ernakulam", "District": "Ernakulam", "Test Type": "ANTIGEN", "FullAddress": "Alpha ENT head&neck Research Institute  Ernakulam  Ernakulam", "Lab Type": "Private Lab" }, "geometry": { "type": "Point", "coordinates": [ 76.2953791, 10.0032624 ] } },
{ "type": "Feature", "properties": { "id": 38, "NAME": "Mar Baselios Medical Mission Hospital Kothamangalam", "Address": "Mar Baselios Medical Mission Hospital Kothamangalam", "District": "Ernakulam", "Test Type": "ANTIGEN", "FullAddress": "Mar Baselios Medical Mission Hospital Kothamangalam  Ernakulam", "Lab Type": "Private Lab" }, "geometry": { "type": "Point", "coordinates": [ 76.6223951, 10.0645781 ] } },
{ "type": "Feature", "properties": { "id": 39, "NAME": "Little Flower Hospital & Research Centre", "Address": "Little Flower Hospital & Research Centre  Angamaly", "District": "Ernakulam", "Test Type": "ANTIGEN", "FullAddress": "Little Flower Hospital & Research Centre  Angamaly  Ernakulam", "Lab Type": "Private Lab" }, "geometry": { "type": "Point", "coordinates": [ 76.3874332, 10.1910662 ] } },
{ "type": "Feature", "properties": { "id": 40, "NAME": "St Joseph Hospital", "Address": "St Joseph Hospital  Dharmagiri  Ernakulam", "District": "Ernakulam", "Test Type": "ANTIGEN", "FullAddress": "St Joseph Hospital  Dharmagiri  Ernakulam  Ernakulam", "Lab Type": "Private Lab" }, "geometry": { "type": "Point", "coordinates": [ 76.301414, 10.060191 ] } },
{ "type": "Feature", "properties": { "id": 41, "NAME": "Sabine Hospital & Research Centre Pvt Ltd", "Address": "Sabine Hospital & Research Centre Pvt Ltd  Pezhakkappilly P.O  Muvattupuzha  Ernakulam", "District": "Ernakulam", "Test Type": "ANTIGEN", "FullAddress": "Sabine Hospital & Research Centre Pvt Ltd  Pezhakkappilly P.O  Muvattupuzha  Ernakulam  Ernakulam", "Lab Type": "Private Lab" }, "geometry": { "type": "Point", "coordinates": [ 76.567870478785494, 10.01412425 ] } },
{ "type": "Feature", "properties": { "id": 42, "NAME": "Microlab Speciality Health Care Services", "Address": "Microlab Speciality Health Care Services  Kozhenchery", "District": "Ernakulam", "Test Type": "ANTIGEN", "FullAddress": "Microlab Speciality Health Care Services  Kozhenchery  Ernakulam", "Lab Type": "Private Lab" }, "geometry": { "type": "Point", "coordinates": [ 76.388793, 10.0877 ] } },
{ "type": "Feature", "properties": { "id": 43, "NAME": "E.S.I.C. Hospital", "Address": "E.S.I.C. Hospital  Udyogmandal  Ernakulam", "District": "Ernakulam", "Test Type": "ANTIGEN", "FullAddress": "E.S.I.C. Hospital  Udyogmandal  Ernakulam  Ernakulam", "Lab Type": "Private Lab" }, "geometry": { "type": "Point", "coordinates": [ 76.317793, 10.077815 ] } },
{ "type": "Feature", "properties": { "id": 44, "NAME": "Samaritan Hospital", "Address": "Samaritan Hospital  Pazhanganad  Ernakulam", "District": "Ernakulam", "Test Type": "ANTIGEN", "FullAddress": "Samaritan Hospital  Pazhanganad  Ernakulam  Ernakulam", "Lab Type": "Private Lab" }, "geometry": { "type": "Point", "coordinates": [ 76.396719, 10.043822 ] } },
{ "type": "Feature", "properties": { "id": 45, "NAME": "Sanjoe Hospital", "Address": "Sanjoe Hospital  A M Road Perumbavoor  Ernakulam", "District": "Ernakulam", "Test Type": "ANTIGEN", "FullAddress": "Sanjoe Hospital  A M Road Perumbavoor  Ernakulam  Ernakulam", "Lab Type": "Private Lab" }, "geometry": { "type": "Point", "coordinates": [ 76.445404, 10.178707 ] } },
{ "type": "Feature", "properties": { "id": 46, "NAME": "St Joseph hospital trust", "Address": "St Joseph hospital trust  Manjummel  Ernakulam", "District": "Ernakulam", "Test Type": "ANTIGEN", "FullAddress": "St Joseph hospital trust  Manjummel  Ernakulam  Ernakulam", "Lab Type": "Private Lab" }, "geometry": { "type": "Point", "coordinates": [ 76.577693, 9.988819 ] } },
{ "type": "Feature", "properties": { "id": 47, "NAME": "Lisie Hospital", "Address": "Lisie Hospital  Ernakulam", "District": "Ernakulam", "Test Type": "ANTIGEN", "FullAddress": "Lisie Hospital  Ernakulam  Ernakulam", "Lab Type": "Private Lab" }, "geometry": { "type": "Point", "coordinates": [ 76.288987851810305, 9.98937165 ] } },
{ "type": "Feature", "properties": { "id": 48, "NAME": "Carmel Hospital", "Address": "Carmel Hospital  Asokapuram  Aluva", "District": "Ernakulam", "Test Type": "ANTIGEN", "FullAddress": "Carmel Hospital  Asokapuram  Aluva  Ernakulam", "Lab Type": "Private Lab" }, "geometry": { "type": "Point", "coordinates": [ 76.362071, 10.090557 ] } },
{ "type": "Feature", "properties": { "id": 49, "NAME": "P S Mission Hospital Maradu", "Address": "P S Mission Hospital Maradu", "District": "Ernakulam", "Test Type": "ANTIGEN", "FullAddress": "P S Mission Hospital Maradu  Ernakulam", "Lab Type": "Private Lab" }, "geometry": { "type": "Point", "coordinates": [ 76.3227155, 9.9377796 ] } },
{ "type": "Feature", "properties": { "id": 50, "NAME": "MAGJ", "Address": "MAGJ  Hospital  Mookkannoor  Angamaly", "District": "Ernakulam", "Test Type": "ANTIGEN", "FullAddress": "MAGJ  Hospital  Mookkannoor  Angamaly  Ernakulam", "Lab Type": "Private Lab" }, "geometry": { "type": "Point", "coordinates": [ 76.413623, 10.220984 ] } },
{ "type": "Feature", "properties": { "id": 51, "NAME": "Sunrise Hospital", "Address": "Sunrise Hospital Seaport-Airport Road  Mavelipuram  Kakkanad", "District": "Ernakulam", "Test Type": "ANTIGEN", "FullAddress": "Sunrise Hospital Seaport-Airport Road  Mavelipuram  Kakkanad  Ernakulam", "Lab Type": "Private Lab" }, "geometry": { "type": "Point", "coordinates": [ 76.33888, 10.025232 ] } },
{ "type": "Feature", "properties": { "id": 52, "NAME": "Kinder Multispeciality Hospital", "Address": "Kinder Multispeciality Hospital Kochi", "District": "Ernakulam", "Test Type": "ANTIGEN", "FullAddress": "Kinder Multispeciality Hospital Kochi  Ernakulam", "Lab Type": "Private Lab" }, "geometry": { "type": "Point", "coordinates": [ 76.315859, 10.038155 ] } },
{ "type": "Feature", "properties": { "id": 53, "NAME": "Indira Gandhi Co-operative Hospital ", "Address": "Indira Gandhi Co-operative Hospital  Kadavanthra  Ernakulam", "District": "Ernakulam", "Test Type": "ANTIGEN", "FullAddress": "Indira Gandhi Co-operative Hospital  Kadavanthra  Ernakulam  Ernakulam", "Lab Type": "Private Lab" }, "geometry": { "type": "Point", "coordinates": [ 76.298569, 9.968895 ] } },
{ "type": "Feature", "properties": { "id": 54, "NAME": "Nirmala Medical Centre", "Address": "Nirmala Medical Centre  Muvattupuzha", "District": "Ernakulam", "Test Type": "ANTIGEN", "FullAddress": "Nirmala Medical Centre  Muvattupuzha  Ernakulam", "Lab Type": "Private Lab" }, "geometry": { "type": "Point", "coordinates": [ 76.592477831756099, 9.97971435 ] } },
{ "type": "Feature", "properties": { "id": 55, "NAME": "Specialists Hospital", "Address": "Specialists Hospital  K.C.M Mather road  Ernakulam", "District": "Ernakulam", "Test Type": "ANTIGEN", "FullAddress": "Specialists Hospital  K.C.M Mather road  Ernakulam  Ernakulam", "Lab Type": "Private Lab" }, "geometry": { "type": "Point", "coordinates": [ 76.2860182, 9.9905344 ] } },
{ "type": "Feature", "properties": { "id": 56, "NAME": "Neuberg Diagnostics", "Address": "Neuberg Diagnostics  Kaloor  Kochi", "District": "Ernakulam", "Test Type": "ANTIGEN", "FullAddress": "Neuberg Diagnostics  Kaloor  Kochi", "Lab Type": "Private Lab" }, "geometry": { "type": "Point", "coordinates": [ 76.2914944, 9.9951444 ] } },
{ "type": "Feature", "properties": { "id": 57, "NAME": "Vivid Diagnostic Centre", "Address": "Vivid Diagnostic Centre  Chalikkavattom  Vytila", "District": "Ernakulam", "Test Type": "ANTIGEN", "FullAddress": "Vivid Diagnostic Centre  Chalikkavattom  Vytila  Ernakulam", "Lab Type": "Private Lab" }, "geometry": { "type": "Point", "coordinates": [ 76.282025, 9.979982 ] } },
{ "type": "Feature", "properties": { "id": 58, "NAME": "Sree Narayana Institute of medical sciences", "Address": "Sree Narayana Institute of medical sciences Chalakka", "District": "Ernakulam", "Test Type": "ANTIGEN", "FullAddress": "Sree Narayana Institute of medical sciences Chalakka  Ernakulam", "Lab Type": "Private Lab" }, "geometry": { "type": "Point", "coordinates": [ 76.354024, 10.048027 ] } },
{ "type": "Feature", "properties": { "id": 59, "NAME": "Hi Tech Diagnostic Centre Palarivattom", "Address": "Hi Tech Diagnostic Centre Palarivattom", "District": "Ernakulam", "Test Type": "ANTIGEN", "FullAddress": "Hi Tech Diagnostic Centre Palarivattom  Ernakulam", "Lab Type": "Private Lab" }, "geometry": { "type": "Point", "coordinates": [ 76.289241, 10.018896 ] } },
{ "type": "Feature", "properties": { "id": 60, "NAME": "Devi Hospital Pvt Ltd", "Address": "Devi Hospital Pvt Ltd North Fort Gate Tripunithura ", "District": "Ernakulam", "Test Type": "ANTIGEN", "FullAddress": "Devi Hospital Pvt Ltd North Fort Gate Tripunithura   Ernakulam", "Lab Type": "Private Lab" }, "geometry": { "type": "Point", "coordinates": [ 76.477804, 10.052821 ] } },
{ "type": "Feature", "properties": { "id": 61, "NAME": "Sreekantapuram Hospital", "Address": "Sreekantapuram Hospital  Mavelikkara", "District": "Ernakulam", "Test Type": "ANTIGEN", "FullAddress": "Sreekantapuram Hospital  Mavelikkara  Ernakulam", "Lab Type": "Private Lab" }, "geometry": { "type": "Point", "coordinates": [ 76.289097, 9.989392 ] } },
{ "type": "Feature", "properties": { "id": 62, "NAME": "V S M Hospital", "Address": "V S M Hospital  Thattarambalam  Mavelikkara", "District": "Ernakulam", "Test Type": "ANTIGEN", "FullAddress": "V S M Hospital  Thattarambalam  Mavelikkara  Ernakulam", "Lab Type": "Private Lab" }, "geometry": { "type": "Point", "coordinates": [ 76.526625, 9.854811 ] } },
{ "type": "Feature", "properties": { "id": 63, "NAME": "M A J Hospital", "Address": "M A J Hospital  Edappally  Kochi", "District": "Ernakulam", "Test Type": "ANTIGEN", "FullAddress": "M A J Hospital  Edappally  Kochi  Ernakulam", "Lab Type": "Private Lab" }, "geometry": { "type": "Point", "coordinates": [ 76.308035, 10.021238 ] } },
{ "type": "Feature", "properties": { "id": 64, "NAME": "Don Bosco Hospital", "Address": "Don Bosco Hospital  North Paravur  Ernakulam", "District": "Ernakulam", "Test Type": "ANTIGEN", "FullAddress": "Don Bosco Hospital  North Paravur  Ernakulam  Ernakulam", "Lab Type": "Private Lab" }, "geometry": { "type": "Point", "coordinates": [ 76.314588, 9.998119 ] } },
{ "type": "Feature", "properties": { "id": 65, "NAME": "MOSC Medical College Hospital", "Address": "MOSC Medical College Hospital  Kolenchery  Ernakulam  Kerala", "District": "Ernakulam", "Test Type": "ANTIGEN", "FullAddress": "MOSC Medical College Hospital  Kolenchery  Ernakulam  Kerala  Ernakulam", "Lab Type": "Private Lab" }, "geometry": { "type": "Point", "coordinates": [ 76.355734, 10.052955 ] } },
{ "type": "Feature", "properties": { "id": 66, "NAME": "Doctor's Diagnostic Centre Pvt Ltd", "Address": "Doctor's Diagnostic Centre Pvt Ltd  CGN Building  Thripunithura Ernakulam", "District": "Ernakulam", "Test Type": "ANTIGEN", "FullAddress": "Doctor's Diagnostic Centre Pvt Ltd  CGN Building  Thripunithura Ernakulam  Ernakulam", "Lab Type": "Private Lab" }, "geometry": { "type": "Point", "coordinates": [ 76.331452, 9.95061 ] } },
{ "type": "Feature", "properties": { "id": 67, "NAME": "EI Lab Metropolis", "Address": "EI Lab Metropolis  North Square Building Opp Town Hall  Ernakulam North", "District": "Ernakulam", "Test Type": "ANTIGEN", "FullAddress": "EI Lab Metropolis  North Square Building Opp Town Hall  Ernakulam North  Ernakulam", "Lab Type": "Private Lab" }, "geometry": { "type": "Point", "coordinates": [ 76.526625, 9.854811 ] } },
{ "type": "Feature", "properties": { "id": 68, "NAME": "Akshaya Hospital", "Address": "Akshaya Hospital  Kaloor  Kadavanthra  Kochi", "District": "Ernakulam", "Test Type": "ANTIGEN", "FullAddress": "Akshaya Hospital  Kaloor  Kadavanthra  Kochi  Ernakulam", "Lab Type": "Private Lab" }, "geometry": { "type": "Point", "coordinates": [ 76.299662, 9.969025 ] } },
{ "type": "Feature", "properties": { "id": 69, "NAME": "AP Varkey Mission Hospital", "Address": "AP Varkey Mission Hospital Thottapady  Arakkunnam  Mulanthuruthy", "District": "Ernakulam", "Test Type": "ANTIGEN", "FullAddress": "AP Varkey Mission Hospital Thottapady  Arakkunnam  Mulanthuruthy  Ernakulam", "Lab Type": "Private Lab" }, "geometry": { "type": "Point", "coordinates": [ 76.447221, 9.88593 ] } },
{ "type": "Feature", "properties": { "id": 70, "NAME": "Ernaklam Medical Centre Hospital (P) Ltd", "Address": "Ernaklam Medical Centre Hospital (P Ltd  NH Bypass  Pallarivattom  Cochin", "District": "Ernakulam", "Test Type": "ANTIGEN", "FullAddress": "Ernaklam Medical Centre Hospital (P Ltd  NH Bypass  Pallarivattom  Cochin  Ernakulam", "Lab Type": "Private Lab" }, "geometry": { "type": "Point", "coordinates": [ 76.477804, 10.052821 ] } },
{ "type": "Feature", "properties": { "id": 71, "NAME": "Dr. Lal PathLabs Ltd. ", "Address": "Dr. Lal PathLabs Ltd. Opp College Ground M.G. Road Ernakulam Cochin", "District": "Ernakulam", "Test Type": "ANTIGEN", "FullAddress": "Dr. Lal PathLabs Ltd. Opp College Ground M.G. Road Ernakulam Cochin  Ernakulam", "Lab Type": "Private Lab" }, "geometry": { "type": "Point", "coordinates": [ 76.477804, 10.052821 ] } },
{ "type": "Feature", "properties": { "id": 72, "NAME": "B and B Memorial Hospital", "Address": "B and B Memorial Hospital  Thrikkakara  Ernakulam", "District": "Ernakulam", "Test Type": "ANTIGEN", "FullAddress": "B and B Memorial Hospital  Thrikkakara  Ernakulam  Ernakulam", "Lab Type": "Private Lab" }, "geometry": { "type": "Point", "coordinates": [ 76.283359, 9.99327 ] } },
{ "type": "Feature", "properties": { "id": 73, "NAME": "Gautham Hospital", "Address": "Gautham Hospital  Panayappilly  Kochi", "District": "Ernakulam", "Test Type": "ANTIGEN", "FullAddress": "Gautham Hospital  Panayappilly  Kochi  Ernakulam", "Lab Type": "Private Lab" }, "geometry": { "type": "Point", "coordinates": [ 76.2560419, 9.9468667 ] } },
{ "type": "Feature", "properties": { "id": 74, "NAME": "Lakshmi Hospital", "Address": "Lakshmi Hospital  Diwans Road  Ernakulam", "District": "Ernakulam", "Test Type": "ANTIGEN", "FullAddress": "Lakshmi Hospital  Diwans Road  Ernakulam  Ernakulam", "Lab Type": "Private Lab" }, "geometry": { "type": "Point", "coordinates": [ 76.283692867029401, 9.96636565 ] } },
{ "type": "Feature", "properties": { "id": 75, "NAME": "Thrikkakara Municipal Cooperative Hospital Society Ltd No.E-993", "Address": "Thrikkakara Municipal Cooperative Hospital Society Ltd No.E-993  Kakkanad", "District": "Ernakulam", "Test Type": "ANTIGEN", "FullAddress": "Thrikkakara Municipal Cooperative Hospital Society Ltd No.E-993  Kakkanad", "Lab Type": "Private Lab" }, "geometry": { "type": "Point", "coordinates": [ 76.3434944, 10.0189611 ] } },
{ "type": "Feature", "properties": { "id": 76, "NAME": "Medical Trust Hospital", "Address": "Medical Trust Hospital  Kuzhuppilly  Ayyampilly  Ernakulam", "District": "Ernakulam", "Test Type": "ANTIGEN", "FullAddress": "Medical Trust Hospital  Kuzhuppilly  Ayyampilly  Ernakulam  Ernakulam", "Lab Type": "Private Lab" }, "geometry": { "type": "Point", "coordinates": [ 76.317804, 10.044187 ] } },
{ "type": "Feature", "properties": { "id": 77, "NAME": "Karothukuzhi Hospital", "Address": "Karothukuzhi Hospital  Aluva Ernakulam", "District": "Ernakulam", "Test Type": "ANTIGEN", "FullAddress": "Karothukuzhi Hospital  Aluva Ernakulam  Ernakulam", "Lab Type": "Private Lab" }, "geometry": { "type": "Point", "coordinates": [ 76.350946215239006, 10.1052629 ] } },
{ "type": "Feature", "properties": { "id": 78, "NAME": "KRISHNA HOSPITAL", "Address": "KRISHNA HOSPITAL  M G CHITTOOR ROAD  COCHIN", "District": "Ernakulam", "Test Type": "ANTIGEN", "FullAddress": "KRISHNA HOSPITAL  M G CHITTOOR ROAD  COCHIN  Ernakulam", "Lab Type": "Private Lab" }, "geometry": { "type": "Point", "coordinates": [ 76.477804, 10.052821 ] } },
{ "type": "Feature", "properties": { "id": 79, "NAME": "Ernakulam Medical Centre Hospital (P Ltd", "Address": "Ernakulam Medical Centre Hospital (P Ltd  Palarivattom  Kochi", "District": "Ernakulam", "Test Type": "ANTIGEN", "FullAddress": "Ernakulam Medical Centre Hospital (P Ltd  Palarivattom  Kochi  Ernakulam", "Lab Type": "Private Lab" }, "geometry": { "type": "Point", "coordinates": [ 76.314531, 9.999678 ] } },
{ "type": "Feature", "properties": { "id": 80, "NAME": "Meditech Diagnostic Centre", "Address": "Meditech Diagnostic Centre  Silpa Complex  Muppathadam P O  Aluva", "District": "Ernakulam", "Test Type": "ANTIGEN", "FullAddress": "Meditech Diagnostic Centre  Silpa Complex  Muppathadam P O  Aluva  Ernakulam", "Lab Type": "Private Lab" }, "geometry": { "type": "Point", "coordinates": [ 76.282025, 9.979982 ] } },
{ "type": "Feature", "properties": { "id": 81, "NAME": "Vimala Hospital", "Address": "Vimala Hospital  Kanjoor  Ernakulam", "District": "Ernakulam", "Test Type": "ANTIGEN", "FullAddress": "Vimala Hospital  Kanjoor  Ernakulam  Ernakulam", "Lab Type": "Private Lab" }, "geometry": { "type": "Point", "coordinates": [ 76.424672, 10.144605 ] } },
{ "type": "Feature", "properties": { "id": 82, "NAME": "Muvattupuzha Co-operative Super Speciality Hospital", "Address": "Muvattupuzha Co-operative Super Speciality Hospital", "District": "Ernakulam", "Test Type": "ANTIGEN", "FullAddress": "Muvattupuzha Co-operative Super Speciality Hospital", "Lab Type": "Private Lab" }, "geometry": { "type": "Point", "coordinates": [ 76.58795, 9.9922306 ] } },
{ "type": "Feature", "properties": { "id": 83, "NAME": "Sangeeth Hospital", "Address": "Sangeeth Hospital  Mattanchery PO  Ernakulam", "District": "Ernakulam", "Test Type": "ANTIGEN", "FullAddress": "Sangeeth Hospital  Mattanchery PO  Ernakulam", "Lab Type": "Private Lab" }, "geometry": { "type": "Point", "coordinates": [ 76.251, 9.9572806 ] } },
{ "type": "Feature", "properties": { "id": 84, "NAME": "Medivision Scan & Diagnostic Research Centre Pvt Ltd", "Address": "Medivision Scan & Diagnostic Research Centre Pvt Ltd  Ravipuram  Kochi", "District": "Ernakulam", "Test Type": "ANTIGEN", "FullAddress": "Medivision Scan & Diagnostic Research Centre Pvt Ltd  Ravipuram  Kochi  Ernakulam", "Lab Type": "Private Lab" }, "geometry": { "type": "Point", "coordinates": [ 76.2894231, 9.961653 ] } },
{ "type": "Feature", "properties": { "id": 85, "NAME": "Santhula trust hospital", "Address": "Santhula trust hospital  Vadakara PO  Koothattukulam  Ernakulam", "District": "Ernakulam", "Test Type": "ANTIGEN", "FullAddress": "Santhula trust hospital  Vadakara PO  Koothattukulam  Ernakulam  Ernakulam", "Lab Type": "Private Lab" }, "geometry": { "type": "Point", "coordinates": [ 76.577693, 9.988819 ] } },
{ "type": "Feature", "properties": { "id": 86, "NAME": "NEDUMCHALIL TRUST HOSPITAL", "Address": "NEDUMCHALIL TRUST HOSPITAL MARKET P O MUVATTUPUZHA", "District": "Ernakulam", "Test Type": "ANTIGEN", "FullAddress": "NEDUMCHALIL TRUST HOSPITAL MARKET P O MUVATTUPUZHA  Ernakulam", "Lab Type": "Private Lab" }, "geometry": { "type": "Point", "coordinates": [ 76.626624, 10.013421 ] } },
{ "type": "Feature", "properties": { "id": 87, "NAME": "DEPARTMENT OF LABORATORY", "Address": "DEPARTMENT OF LABORATORY  Shenoys CARE (P LTD  Near Nippon Toyota   Nettoor   Ernakulam", "District": "Ernakulam", "Test Type": "ANTIGEN", "FullAddress": "DEPARTMENT OF LABORATORY  Shenoys CARE (P LTD  Near Nippon Toyota   Nettoor   Ernakulam  Ernakulam", "Lab Type": "Private Lab" }, "geometry": { "type": "Point", "coordinates": [ 76.425394, 10.088329 ] } },
{ "type": "Feature", "properties": { "id": 88, "NAME": "Dr KUNHALUS NURSING HOME", "Address": "Dr KUNHALUS NURSING HOME T D ROAD  ERNAKULAM", "District": "Ernakulam", "Test Type": "ANTIGEN", "FullAddress": "Dr KUNHALUS NURSING HOME T D ROAD  ERNAKULAM  Ernakulam", "Lab Type": "Private Lab" }, "geometry": { "type": "Point", "coordinates": [ 76.526625, 9.854811 ] } },
{ "type": "Feature", "properties": { "id": 89, "NAME": "Naveen Lab", "Address": "Naveen Lab  Near Govt. Hospital  Perumbavoor  Ernakulam", "District": "Ernakulam", "Test Type": "ANTIGEN", "FullAddress": "Naveen Lab  Near Govt. Hospital  Perumbavoor  Ernakulam", "Lab Type": "Private Lab" }, "geometry": { "type": "Point", "coordinates": [ 76.4811972, 10.1155944 ] } },
{ "type": "Feature", "properties": { "id": 90, "NAME": "PMM Hospital", "Address": "PMM Hospital  Kalady  Kanjoor Road", "District": "Ernakulam", "Test Type": "ANTIGEN", "FullAddress": "PMM Hospital  Kalady  Kanjoor Road  Ernakulam", "Lab Type": "Private Lab" }, "geometry": { "type": "Point", "coordinates": [ 76.526625, 9.854811 ] } },
{ "type": "Feature", "properties": { "id": 91, "NAME": "VISHUS HI TECH DIAGNOSTIC CENTRE", "Address": "VISHUS HI TECH DIAGNOSTIC CENTRE  Thundathil building  PWD road  SN junction  Nettoor- Madavana road  Ernakulam", "District": "Ernakulam", "Test Type": "ANTIGEN", "FullAddress": "VISHUS HI TECH DIAGNOSTIC CENTRE  Thundathil building  PWD road  SN junction  Nettoor- Madavana road  Ernakulam  Ernakulam", "Lab Type": "Private Lab" }, "geometry": { "type": "Point", "coordinates": [ 76.526625, 9.854811 ] } },
{ "type": "Feature", "properties": { "id": 92, "NAME": "Welcare Hospital", "Address": "Welcare Hospital  SA Road  Vytila", "District": "Ernakulam", "Test Type": "ANTIGEN", "FullAddress": "Welcare Hospital  SA Road  Vytila  Ernakulam", "Lab Type": "Private Lab" }, "geometry": { "type": "Point", "coordinates": [ 76.301096, 9.999661 ] } },
{ "type": "Feature", "properties": { "id": 93, "NAME": "Devamatha Hospital", "Address": "Devamatha Hospital  Koothattukulam  Ernakulam", "District": "Ernakulam", "Test Type": "ANTIGEN", "FullAddress": "Devamatha Hospital  Koothattukulam  Ernakulam  Ernakulam", "Lab Type": "Private Lab" }, "geometry": { "type": "Point", "coordinates": [ 76.595315, 9.865639 ] } },
{ "type": "Feature", "properties": { "id": 94, "NAME": "Najath Hospital", "Address": "Najath Hospital  Bye Pass Junction  Aluva", "District": "Ernakulam", "Test Type": "ANTIGEN", "FullAddress": "Najath Hospital  Bye Pass Junction  Aluva  Ernakulam", "Lab Type": "Private Lab" }, "geometry": { "type": "Point", "coordinates": [ 76.35157, 10.110983 ] } },
{ "type": "Feature", "properties": { "id": 95, "NAME": "Anwar Memorial Hospital Health Laboratory", "Address": "Anwar Memorial Hospital Health Laboratory  Santhosh Lane  Aluva", "District": "Ernakulam", "Test Type": "ANTIGEN", "FullAddress": "Anwar Memorial Hospital Health Laboratory  Santhosh Lane  Aluva  Ernakulam", "Lab Type": "Private Lab" }, "geometry": { "type": "Point", "coordinates": [ 76.383017, 9.93341 ] } },
{ "type": "Feature", "properties": { "id": 96, "NAME": "Apollo Adlux hospital", "Address": "Apollo Adlux hospital  35\/2  Cable junction  Karukutty post  Angamaly  Ernakulam", "District": "Ernakulam", "Test Type": "ANTIGEN", "FullAddress": "Apollo Adlux hospital  35\/2  Cable junction  Karukutty post  Angamaly  Ernakulam", "Lab Type": "Private Lab" }, "geometry": { "type": "Point", "coordinates": [ 76.3724917, 10.2396806 ] } },
{ "type": "Feature", "properties": { "id": 97, "NAME": "V.G.Saraf Memorial Hospital Pvt Ltd", "Address": "V.G.Saraf Memorial Hospital Pvt Ltd  39\/4603-A  Sreekandath  Road  Ravipuram", "District": "Ernakulam", "Test Type": "ANTIGEN", "FullAddress": "V.G.Saraf Memorial Hospital Pvt Ltd  39\/4603-A  Sreekandath  Road  Ravipuram  Ernakulam", "Lab Type": "Private Lab" }, "geometry": { "type": "Point", "coordinates": [ 76.526625, 9.854811 ] } },
{ "type": "Feature", "properties": { "id": 98, "NAME": "Holy Family Hospital", "Address": "Holy Family Hospital Muthalakodam  Idukki", "District": "Idukki", "Test Type": "ANTIGEN", "FullAddress": "Holy Family Hospital Muthalakodam  Idukki  Idukki", "Lab Type": "Private Lab" }, "geometry": { "type": "Point", "coordinates": [ 76.733642, 9.912222 ] } },
{ "type": "Feature", "properties": { "id": 99, "NAME": "Chazhikattu Hospitals pvt Ltd", "Address": "Chazhikattu Hospitals pvt Ltd IX\/139A River View Road Thodupuzha Idukki", "District": "Idukki", "Test Type": "ANTIGEN", "FullAddress": "Chazhikattu Hospitals pvt Ltd IX\/139A River View Road Thodupuzha Idukki  Idukki", "Lab Type": "Private Lab" }, "geometry": { "type": "Point", "coordinates": [ 76.712615, 9.939092 ] } },
{ "type": "Feature", "properties": { "id": 100, "NAME": "St. Marys Health Care Pvt Ltd. Thodupuzha", "Address": "St. Marys Health Care Pvt Ltd. Thodupuzha", "District": "Idukki", "Test Type": "ANTIGEN", "FullAddress": "St. Marys Health Care Pvt Ltd. Thodupuzha  Idukki", "Lab Type": "Private Lab" }, "geometry": { "type": "Point", "coordinates": [ 76.93771, 9.896826 ] } },
{ "type": "Feature", "properties": { "id": 101, "NAME": "Idukki District Co Operative Hospital ", "Address": "Idukki District Co Operative Hospital   Thodupuzha", "District": "Idukki", "Test Type": "ANTIGEN", "FullAddress": "Idukki District Co Operative Hospital   Thodupuzha  Idukki", "Lab Type": "Private Lab" }, "geometry": { "type": "Point", "coordinates": [ 77.061336, 9.737047 ] } },
{ "type": "Feature", "properties": { "id": 102, "NAME": "Al Azhar Medical College & Hospital", "Address": "Al Azhar Medical College & Hospital  Thodupuzha", "District": "Idukki", "Test Type": "ANTIGEN", "FullAddress": "Al Azhar Medical College & Hospital  Thodupuzha", "Lab Type": "Private Lab" }, "geometry": { "type": "Point", "coordinates": [ 76.7232611, 9.9347861 ] } },
{ "type": "Feature", "properties": { "id": 103, "NAME": "St. John's Hospital", "Address": "St. John's Hospital  Kattappana South P.O.  Idukki .", "District": "Idukki", "Test Type": "ANTIGEN", "FullAddress": "St. John's Hospital  Kattappana South P.O.  Idukki .  Idukki", "Lab Type": "Private Lab" }, "geometry": { "type": "Point", "coordinates": [ 77.109715, 9.747013 ] } },
{ "type": "Feature", "properties": { "id": 104, "NAME": "Alphonsa Hospital", "Address": "Alphonsa Hospital  Murickassery  Idukki", "District": "Idukki", "Test Type": "ANTIGEN", "FullAddress": "Alphonsa Hospital  Murickassery  Idukki  Idukki", "Lab Type": "Private Lab" }, "geometry": { "type": "Point", "coordinates": [ 77.0092089, 9.9135049 ] } },
{ "type": "Feature", "properties": { "id": 105, "NAME": "Morning Star Medical Centre", "Address": "Morning Star Medical Centre  Nazareth Hill  Adimaly  Idukki", "District": "Idukki", "Test Type": "ANTIGEN", "FullAddress": "Morning Star Medical Centre  Nazareth Hill  Adimaly  Idukki  Idukki", "Lab Type": "Private Lab" }, "geometry": { "type": "Point", "coordinates": [ 77.043171, 9.992177 ] } },
{ "type": "Feature", "properties": { "id": 106, "NAME": "Mundakayam Medical Trust Hospital", "Address": "Mundakayam Medical Trust Hospital  Idukki", "District": "Idukki", "Test Type": "ANTIGEN", "FullAddress": "Mundakayam Medical Trust Hospital  Idukki  Idukki", "Lab Type": "Private Lab" }, "geometry": { "type": "Point", "coordinates": [ 76.908997, 9.535144 ] } },
{ "type": "Feature", "properties": { "id": 107, "NAME": "Karuna Hospital", "Address": "Karuna Hospital  Thodupuzha  Idukki", "District": "Idukki", "Test Type": "ANTIGEN", "FullAddress": "Karuna Hospital  Thodupuzha  Idukki  Idukki", "Lab Type": "Private Lab" }, "geometry": { "type": "Point", "coordinates": [ 76.7469090807339, 9.8378009 ] } },
{ "type": "Feature", "properties": { "id": 108, "NAME": "SMART MEDIPLUS DIAGNOSTIC CENTRE", "Address": "SMART MEDIPLUS DIAGNOSTIC CENTRE  Thodupuzha", "District": "Idukki", "Test Type": "ANTIGEN", "FullAddress": "SMART MEDIPLUS DIAGNOSTIC CENTRE  Thodupuzha", "Lab Type": "Private Lab" }, "geometry": { "type": "Point", "coordinates": [ 76.7241944, 9.9021417 ] } },
{ "type": "Feature", "properties": { "id": 109, "NAME": "Medical Trust Hospital", "Address": "Medical Trust Hospital  Nedumkandam  Idukki", "District": "Idukki", "Test Type": "ANTIGEN", "FullAddress": "Medical Trust Hospital  Nedumkandam  Idukki  Idukki", "Lab Type": "Private Lab" }, "geometry": { "type": "Point", "coordinates": [ 76.908997, 9.535144 ] } },
{ "type": "Feature", "properties": { "id": 110, "NAME": "SMART MEDIPLUS DIAGNOSTIC CENTRE", "Address": "SMART MEDIPLUS DIAGNOSTIC CENTRE  KALLIKUZHY BUILDING  LIBRARY ROAD   ADIMALY", "District": "Idukki", "Test Type": "ANTIGEN", "FullAddress": "SMART MEDIPLUS DIAGNOSTIC CENTRE  KALLIKUZHY BUILDING  LIBRARY ROAD   ADIMALY", "Lab Type": "Private Lab" }, "geometry": { "type": "Point", "coordinates": [ 76.9588694, 10.0128639 ] } },
{ "type": "Feature", "properties": { "id": 111, "NAME": "Aster MIMS Kannur", "Address": "Aster MIMS Kannur", "District": "Kannur", "Test Type": "ANTIGEN", "FullAddress": "Aster MIMS Kannur  Kannur", "Lab Type": "Private Lab" }, "geometry": { "type": "Point", "coordinates": [ 75.429997335375006, 11.8391384 ] } },
{ "type": "Feature", "properties": { "id": 112, "NAME": "St.Martin De Porres Hospital", "Address": "St.Martin De Porres Hospital Cherukunnu Kannur", "District": "Kannur", "Test Type": "ANTIGEN", "FullAddress": "St.Martin De Porres Hospital Cherukunnu Kannur  Kannur", "Lab Type": "Private Lab" }, "geometry": { "type": "Point", "coordinates": [ 75.3133685, 11.9945472 ] } },
{ "type": "Feature", "properties": { "id": 113, "NAME": "Superspeciality Lab", "Address": "Superspeciality Lab  Payyoli", "District": "Kannur", "Test Type": "ANTIGEN", "FullAddress": "Superspeciality Lab  Payyoli  Kannur", "Lab Type": "Private Lab" }, "geometry": { "type": "Point", "coordinates": [ 75.515001, 11.781293 ] } },
{ "type": "Feature", "properties": { "id": 114, "NAME": "THE LAB", "Address": "THE LAB  LABORATORY AND SCANNING CENTRE  RAILWAY STATION ROAD  PAZHAYANGADI  KANNUR", "District": "Kannur", "Test Type": "ANTIGEN", "FullAddress": "THE LAB  LABORATORY AND SCANNING CENTRE  RAILWAY STATION ROAD  PAZHAYANGADI  KANNUR  Kannur", "Lab Type": "Private Lab" }, "geometry": { "type": "Point", "coordinates": [ 75.358829, 11.862946 ] } },
{ "type": "Feature", "properties": { "id": 115, "NAME": "Indira Gandhi Co-OP Hospital", "Address": "Indira Gandhi Co-OP Hospital Manjodi  Thalassery  Kannur", "District": "Kannur", "Test Type": "ANTIGEN", "FullAddress": "Indira Gandhi Co-OP Hospital Manjodi  Thalassery  Kannur  Kannur", "Lab Type": "Private Lab" }, "geometry": { "type": "Point", "coordinates": [ 75.506134, 11.746893 ] } },
{ "type": "Feature", "properties": { "id": 116, "NAME": "AKG Memorial Co operative Hospital", "Address": "AKG Memorial Co operative Hospital  Kannur", "District": "Kannur", "Test Type": "ANTIGEN", "FullAddress": "AKG Memorial Co operative Hospital  Kannur", "Lab Type": "Private Lab" }, "geometry": { "type": "Point", "coordinates": [ 75.3730444, 11.8851528 ] } },
{ "type": "Feature", "properties": { "id": 117, "NAME": "THE PAYYANUR CO OPERATIVE HOSPITAL SOCIETY LTD", "Address": "THE PAYYANUR CO OPERATIVE HOSPITAL SOCIETY LTD  SOUTH BAZAR  PAYYANUR  PAYYANUR PO  KANNUR", "District": "Kannur", "Test Type": "ANTIGEN", "FullAddress": "THE PAYYANUR CO OPERATIVE HOSPITAL SOCIETY LTD  SOUTH BAZAR  PAYYANUR  PAYYANUR PO  KANNUR  Kannur", "Lab Type": "Private Lab" }, "geometry": { "type": "Point", "coordinates": [ 75.548752, 11.819047 ] } },
{ "type": "Feature", "properties": { "id": 118, "NAME": "LEO CLINICAL DIAGNOSTIC CENTRE LLP ", "Address": "LEO CLINICAL DIAGNOSTIC CENTRE LLP  Opp G mall  South Bazar Kannur", "District": "Kannur", "Test Type": "ANTIGEN", "FullAddress": "LEO CLINICAL DIAGNOSTIC CENTRE LLP  Opp G mall  South Bazar Kannur  Kannur", "Lab Type": "Private Lab" }, "geometry": { "type": "Point", "coordinates": [ 75.358829, 11.862946 ] } },
{ "type": "Feature", "properties": { "id": 119, "NAME": "CnC Hitech Lab", "Address": "CnC Hitech Lab  Nr sub registrar office  Eripuram  Payangadi  Kannur", "District": "Kannur", "Test Type": "ANTIGEN", "FullAddress": "CnC Hitech Lab  Nr sub registrar office  Eripuram  Payangadi  Kannur", "Lab Type": "Private Lab" }, "geometry": { "type": "Point", "coordinates": [ 75.2659667, 12.0298778 ] } },
{ "type": "Feature", "properties": { "id": 120, "NAME": "Gimcare Hospital", "Address": "Gimcare Hospital Building No: 32\/1094\/1-8  Chala Bypass  Thottada (PO  Kannur", "District": "Kannur", "Test Type": "ANTIGEN", "FullAddress": "Gimcare Hospital Building No: 32\/1094\/1-8  Chala Bypass  Thottada (PO  Kannur  Kannur", "Lab Type": "Private Lab" }, "geometry": { "type": "Point", "coordinates": [ 75.426877, 11.848199 ] } },
{ "type": "Feature", "properties": { "id": 121, "NAME": "Taliparamba Co-operative Hospital Society", "Address": "Taliparamba Co-operative Hospital Society  Taliparamba", "District": "Kannur", "Test Type": "ANTIGEN", "FullAddress": "Taliparamba Co-operative Hospital Society  Taliparamba  Kannur", "Lab Type": "Private Lab" }, "geometry": { "type": "Point", "coordinates": [ 75.37284, 12.04359 ] } },
{ "type": "Feature", "properties": { "id": 122, "NAME": "Lourde Hospital", "Address": "Lourde Hospital  Thalliparamba  Kannur", "District": "Kannur", "Test Type": "ANTIGEN", "FullAddress": "Lourde Hospital  Thalliparamba  Kannur  Kannur", "Lab Type": "Private Lab" }, "geometry": { "type": "Point", "coordinates": [ 75.355537, 12.041544 ] } },
{ "type": "Feature", "properties": { "id": 123, "NAME": "Koyili Hospital", "Address": "Koyili Hospital  Talap  Kannur", "District": "Kannur", "Test Type": "ANTIGEN", "FullAddress": "Koyili Hospital  Talap  Kannur  Kannur", "Lab Type": "Private Lab" }, "geometry": { "type": "Point", "coordinates": [ 75.370809541958806, 11.88719365 ] } },
{ "type": "Feature", "properties": { "id": 124, "NAME": "Dhanalakshmi Hospital Pvt Ltd", "Address": "Dhanalakshmi Hospital Pvt Ltd  Kannothumchal Road  Kannur", "District": "Kannur", "Test Type": "ANTIGEN", "FullAddress": "Dhanalakshmi Hospital Pvt Ltd  Kannothumchal Road  Kannur  Kannur", "Lab Type": "Private Lab" }, "geometry": { "type": "Point", "coordinates": [ 75.358829, 11.862946 ] } },
{ "type": "Feature", "properties": { "id": 125, "NAME": "Amala Multi Specialty Hospital", "Address": "Amala Multi Specialty Hospital  Keezhur  Iritty  Kannur", "District": "Kannur", "Test Type": "ANTIGEN", "FullAddress": "Amala Multi Specialty Hospital  Keezhur  Iritty  Kannur  Kannur", "Lab Type": "Private Lab" }, "geometry": { "type": "Point", "coordinates": [ 75.671376, 11.97973 ] } },
{ "type": "Feature", "properties": { "id": 126, "NAME": "Specialty Hospital", "Address": "Specialty Hospital  Thana  Kannur", "District": "Kannur", "Test Type": "ANTIGEN", "FullAddress": "Specialty Hospital  Thana  Kannur  Kannur", "Lab Type": "Private Lab" }, "geometry": { "type": "Point", "coordinates": [ 75.372761, 11.877613 ] } },
{ "type": "Feature", "properties": { "id": 127, "NAME": "Christuraj Hospital", "Address": "Christuraj Hospital  Thokkilangadi  Nirmalgiri  Koothuparamba  Kannur", "District": "Kannur", "Test Type": "ANTIGEN", "FullAddress": "Christuraj Hospital  Thokkilangadi  Nirmalgiri  Koothuparamba  Kannur  Kannur", "Lab Type": "Private Lab" }, "geometry": { "type": "Point", "coordinates": [ 75.372761, 11.877613 ] } },
{ "type": "Feature", "properties": { "id": 128, "NAME": "Neethi Lab ", "Address": "Neethi Lab   Thalassery  Kannur", "District": "Kannur", "Test Type": "ANTIGEN", "FullAddress": "Neethi Lab   Thalassery  Kannur  Kannur", "Lab Type": "Private Lab" }, "geometry": { "type": "Point", "coordinates": [ 75.572625, 11.930267 ] } },
{ "type": "Feature", "properties": { "id": 129, "NAME": "Josgiri Hospital", "Address": "Josgiri Hospital  Thalassery  Kannur", "District": "Kannur", "Test Type": "ANTIGEN", "FullAddress": "Josgiri Hospital  Thalassery  Kannur  Kannur", "Lab Type": "Private Lab" }, "geometry": { "type": "Point", "coordinates": [ 75.4787704, 11.7593082 ] } },
{ "type": "Feature", "properties": { "id": 130, "NAME": "St Sebastian's Hospital. Kakkayamchal", "Address": "St Sebastian's Hospital. Kakkayamchal  Cherupuzha  Kannur", "District": "Kannur", "Test Type": "ANTIGEN", "FullAddress": "St Sebastian's Hospital. Kakkayamchal  Cherupuzha  Kannur", "Lab Type": "Private Lab" }, "geometry": { "type": "Point", "coordinates": [ 75.3562528, 12.2692417 ] } },
{ "type": "Feature", "properties": { "id": 131, "NAME": "Saba Hospital", "Address": "Saba Hospital  Near Gandhi Park  Payyannur", "District": "Kannur", "Test Type": "ANTIGEN", "FullAddress": "Saba Hospital  Near Gandhi Park  Payyannur  Kannur", "Lab Type": "Private Lab" }, "geometry": { "type": "Point", "coordinates": [ 75.503176, 11.822946 ] } },
{ "type": "Feature", "properties": { "id": 132, "NAME": "Tellicherry Co-Operative Hospital", "Address": "Tellicherry Co-Operative Hospital  Kannur", "District": "Kannur", "Test Type": "ANTIGEN", "FullAddress": "Tellicherry Co-Operative Hospital  Kannur  Kannur", "Lab Type": "Private Lab" }, "geometry": { "type": "Point", "coordinates": [ 75.479678, 11.764102 ] } },
{ "type": "Feature", "properties": { "id": 133, "NAME": "Thalassery Mission Hospital Pvt Ltd", "Address": "Thalassery Mission Hospital Pvt Ltd  Goods Shed Road  Thalassery  Kannur", "District": "Kannur", "Test Type": "ANTIGEN", "FullAddress": "Thalassery Mission Hospital Pvt Ltd  Goods Shed Road  Thalassery  Kannur  Kannur", "Lab Type": "Private Lab" }, "geometry": { "type": "Point", "coordinates": [ 75.21467, 12.1006 ] } },
{ "type": "Feature", "properties": { "id": 134, "NAME": "Sreechand Speciality Hospitals Pvt.Ltd", "Address": "Sreechand Speciality Hospitals Pvt.Ltd  Near SN Park Kannur", "District": "Kannur", "Test Type": "ANTIGEN", "FullAddress": "Sreechand Speciality Hospitals Pvt.Ltd  Near SN Park Kannur  Kannur", "Lab Type": "Private Lab" }, "geometry": { "type": "Point", "coordinates": [ 75.358829, 11.862946 ] } },
{ "type": "Feature", "properties": { "id": 135, "NAME": "THE LAB", "Address": "THE LAB  Green Valley  Kambil  Kannur  Kerala", "District": "Kannur", "Test Type": "ANTIGEN", "FullAddress": "THE LAB  Green Valley  Kambil  Kannur  Kerala  Kannur", "Lab Type": "Private Lab" }, "geometry": { "type": "Point", "coordinates": [ 76.891754, 9.676092 ] } },
{ "type": "Feature", "properties": { "id": 136, "NAME": "City Institute of Medical Sciences Kerala Pvt. Ltd- Sunrise Hospital", "Address": "City Institute of Medical Sciences Kerala Pvt. Ltd- Sunrise Hospital Kanhangad Kasaragod", "District": "Kannur", "Test Type": "ANTIGEN", "FullAddress": "City Institute of Medical Sciences Kerala Pvt. Ltd- Sunrise Hospital Kanhangad Kasaragod", "Lab Type": "Private Lab" }, "geometry": { "type": "Point", "coordinates": [ 75.0952778, 12.332425 ] } },
{ "type": "Feature", "properties": { "id": 137, "NAME": "KDC LAB", "Address": "KDC LAB  Opp. Little Flower School  Puthiyakotta Kanhnangad  Kasargode", "District": "Kasaragod", "Test Type": "ANTIGEN", "FullAddress": "KDC LAB  Opp. Little Flower School  Puthiyakotta Kanhnangad  Kasargode  Kasaragod", "Lab Type": "Private Lab" }, "geometry": { "type": "Point", "coordinates": [ 75.094012, 12.348104 ] } },
{ "type": "Feature", "properties": { "id": 138, "NAME": "DDRC SRL", "Address": "DDRC SRL Opposite to Malabar Gold & Padma Clinic  Kanhangad  Kasaragod", "District": "Kasaragod", "Test Type": "ANTIGEN", "FullAddress": "DDRC SRL Opposite to Malabar Gold & Padma Clinic  Kanhangad  Kasaragod  Kasaragod", "Lab Type": "Private Lab" }, "geometry": { "type": "Point", "coordinates": [ 76.578955, 9.978285 ] } },
{ "type": "Feature", "properties": { "id": 139, "NAME": "INDIAN DIAGNOSTIC LABORATORY(IDL", "Address": "INDIAN DIAGNOSTIC LABORATORY(IDL  KOTTACHERRY KANHANGAD", "District": "Kasaragod", "Test Type": "ANTIGEN", "FullAddress": "INDIAN DIAGNOSTIC LABORATORY(IDL  KOTTACHERRY KANHANGAD", "Lab Type": "Private Lab" }, "geometry": { "type": "Point", "coordinates": [ 75.0869667, 12.3236278 ] } },
{ "type": "Feature", "properties": { "id": 140, "NAME": "Kasargod Institute of Medical Science", "Address": "Kasargod Institute of Medical Science Ashwini Nagar  Kasargod", "District": "Kasaragod", "Test Type": "ANTIGEN", "FullAddress": "Kasargod Institute of Medical Science Ashwini Nagar  Kasargod  Kasaragod", "Lab Type": "Private Lab" }, "geometry": { "type": "Point", "coordinates": [ 74.988872, 12.676126 ] } },
{ "type": "Feature", "properties": { "id": 141, "NAME": "Carewell Hospital & Research Centre", "Address": "Carewell Hospital & Research Centre  Nullipady  Kasaragod", "District": "Kasaragod", "Test Type": "ANTIGEN", "FullAddress": "Carewell Hospital & Research Centre  Nullipady  Kasaragod  Kasaragod", "Lab Type": "Private Lab" }, "geometry": { "type": "Point", "coordinates": [ 74.998179, 12.5114869 ] } },
{ "type": "Feature", "properties": { "id": 142, "NAME": "DDC LAB", "Address": "DDC LAB TIGER HILLS  PULIKKUNNU ROAD  KASARAGOD", "District": "Kasaragod", "Test Type": "ANTIGEN", "FullAddress": "DDC LAB TIGER HILLS  PULIKKUNNU ROAD  KASARAGOD  Kasaragod", "Lab Type": "Private Lab" }, "geometry": { "type": "Point", "coordinates": [ 74.94035, 12.615349 ] } },
{ "type": "Feature", "properties": { "id": 143, "NAME": "Janardan Hospital", "Address": "Janardan Hospital  Bank Road  Kasaragod", "District": "Kasaragod", "Test Type": "ANTIGEN", "FullAddress": "Janardan Hospital  Bank Road  Kasaragod  Kasaragod", "Lab Type": "Private Lab" }, "geometry": { "type": "Point", "coordinates": [ 74.94035, 12.615349 ] } },
{ "type": "Feature", "properties": { "id": 144, "NAME": "Malik Deeanar Charitable Hospital", "Address": "Malik Deeanar Charitable Hospital  Thalangara  Kasaragod", "District": "Kasaragod", "Test Type": "ANTIGEN", "FullAddress": "Malik Deeanar Charitable Hospital  Thalangara  Kasaragod", "Lab Type": "Private Lab" }, "geometry": { "type": "Point", "coordinates": [ 74.9914778, 12.4849278 ] } },
{ "type": "Feature", "properties": { "id": 145, "NAME": "Neethi Lab", "Address": "Neethi Lab  Kasargode  Bank Road Kasargode", "District": "Kasaragod", "Test Type": "ANTIGEN", "FullAddress": "Neethi Lab  Kasargode  Bank Road Kasargode  Kasaragod", "Lab Type": "Private Lab" }, "geometry": { "type": "Point", "coordinates": [ 74.94035, 12.615349 ] } },
{ "type": "Feature", "properties": { "id": 146, "NAME": "Neethi Lab", "Address": "Neethi Lab  Near Regal Tourist Home  Railway Station Road  Kanhangad", "District": "Kasaragod", "Test Type": "ANTIGEN", "FullAddress": "Neethi Lab  Near Regal Tourist Home  Railway Station Road  Kanhangad  Kasaragod", "Lab Type": "Private Lab" }, "geometry": { "type": "Point", "coordinates": [ 75.100393, 12.30646 ] } },
{ "type": "Feature", "properties": { "id": 147, "NAME": "Devi Clinical Laboratory", "Address": "Devi Clinical Laboratory  Kollam", "District": "Kasaragod", "Test Type": "ANTIGEN", "FullAddress": "Devi Clinical Laboratory  Kollam", "Lab Type": "Private Lab" }, "geometry": { "type": "Point", "coordinates": [ 76.5887139, 8.8869 ] } },
{ "type": "Feature", "properties": { "id": 148, "NAME": "EK Nayanar Memorial", "Address": "EK Nayanar Memorial  Co Operative Hospital  Chengala  Kasargod", "District": "Kasaragod", "Test Type": "ANTIGEN", "FullAddress": "EK Nayanar Memorial  Co Operative Hospital  Chengala  Kasargod  Kasaragod", "Lab Type": "Private Lab" }, "geometry": { "type": "Point", "coordinates": [ 75.035313, 12.510117 ] } },
{ "type": "Feature", "properties": { "id": 149, "NAME": "UNITED MEDICAL CENTER", "Address": "UNITED MEDICAL CENTER  KOTEKANI ROAD  KASARAGOD", "District": "Kasaragod", "Test Type": "ANTIGEN", "FullAddress": "UNITED MEDICAL CENTER  KOTEKANI ROAD  KASARAGOD  Kasaragod", "Lab Type": "Private Lab" }, "geometry": { "type": "Point", "coordinates": [ 74.94035, 12.615349 ] } },
{ "type": "Feature", "properties": { "id": 150, "NAME": "G K CLINICAL LABORATORY", "Address": "G K CLINICAL LABORATORY  MADHAVA PAI BUILDING   BADIADKA ROAD   KUMBALA  KASARAGOD", "District": "Kasaragod", "Test Type": "ANTIGEN", "FullAddress": "G K CLINICAL LABORATORY  MADHAVA PAI BUILDING   BADIADKA ROAD   KUMBALA  KASARAGOD  Kasaragod", "Lab Type": "Private Lab" }, "geometry": { "type": "Point", "coordinates": [ 75.072783, 12.583776 ] } },
{ "type": "Feature", "properties": { "id": 151, "NAME": "DDRC SRL Diagnostics Pvt Ltd", "Address": "DDRC SRL Diagnostics Pvt Ltd  Chinnakkada  Kollam.", "District": "Kollam", "Test Type": "ANTIGEN", "FullAddress": "DDRC SRL Diagnostics Pvt Ltd  Chinnakkada  Kollam.", "Lab Type": "Private Lab" }, "geometry": { "type": "Point", "coordinates": [ 76.5862306, 8.8880972 ] } },
{ "type": "Feature", "properties": { "id": 152, "NAME": "Travancore Medicity Medical College", "Address": "Travancore Medicity Medical College  Kollam", "District": "Kollam", "Test Type": "ANTIGEN", "FullAddress": "Travancore Medicity Medical College  Kollam  Kollam", "Lab Type": "Private Lab" }, "geometry": { "type": "Point", "coordinates": [ 76.64496, 8.875216 ] } },
{ "type": "Feature", "properties": { "id": 153, "NAME": "Holy cross Hospital", "Address": "Holy cross Hospital  Kottiyam", "District": "Kollam", "Test Type": "ANTIGEN", "FullAddress": "Holy cross Hospital  Kottiyam  Kollam", "Lab Type": "Private Lab" }, "geometry": { "type": "Point", "coordinates": [ 76.86147, 8.89842 ] } },
{ "type": "Feature", "properties": { "id": 154, "NAME": "Meditrina hospital laboratory", "Address": "Meditrina hospital laboratory Ayathil  Kollam ", "District": "Kollam", "Test Type": "ANTIGEN", "FullAddress": "Meditrina hospital laboratory Ayathil  Kollam   Kollam", "Lab Type": "Private Lab" }, "geometry": { "type": "Point", "coordinates": [ 76.600777, 8.895683 ] } },
{ "type": "Feature", "properties": { "id": 155, "NAME": "Matha Medical Centre", "Address": "Matha Medical Centre Mathilil Kollam", "District": "Kollam", "Test Type": "ANTIGEN", "FullAddress": "Matha Medical Centre Mathilil Kollam  Kollam", "Lab Type": "Private Lab" }, "geometry": { "type": "Point", "coordinates": [ 76.53413, 8.98664 ] } },
{ "type": "Feature", "properties": { "id": 156, "NAME": "DDRC SRL Diagnostics Pvt. Ltd. ", "Address": "DDRC SRL Diagnostics Pvt. Ltd.   City Tower  Kottarakkara  Kollam", "District": "Kollam", "Test Type": "ANTIGEN", "FullAddress": "DDRC SRL Diagnostics Pvt. Ltd.   City Tower  Kottarakkara  Kollam", "Lab Type": "Private Lab" }, "geometry": { "type": "Point", "coordinates": [ 76.7776917, 9.0056306 ] } },
{ "type": "Feature", "properties": { "id": 157, "NAME": "Dr Nair's Hospital", "Address": "Dr Nair's Hospital  Kollam", "District": "Kollam", "Test Type": "ANTIGEN", "FullAddress": "Dr Nair's Hospital  Kollam  Kollam", "Lab Type": "Private Lab" }, "geometry": { "type": "Point", "coordinates": [ 76.598888, 8.894851 ] } },
{ "type": "Feature", "properties": { "id": 158, "NAME": "NS Memorial Institute of Medical Sciences", "Address": "NS Memorial Institute of Medical Sciences  Palathara  Kollam", "District": "Kollam", "Test Type": "ANTIGEN", "FullAddress": "NS Memorial Institute of Medical Sciences  Palathara  Kollam  Kollam", "Lab Type": "Private Lab" }, "geometry": { "type": "Point", "coordinates": [ 76.597863, 8.889812 ] } },
{ "type": "Feature", "properties": { "id": 159, "NAME": "DDRC SRL Diagnostic Services Pvt Ltd", "Address": "DDRC SRL Diagnostic Services Pvt Ltd  Sri sri building  Parippally  Kollam", "District": "Kollam", "Test Type": "ANTIGEN", "FullAddress": "DDRC SRL Diagnostic Services Pvt Ltd  Sri sri building  Parippally  Kollam", "Lab Type": "Private Lab" }, "geometry": { "type": "Point", "coordinates": [ 76.7531306, 8.8126194 ] } },
{ "type": "Feature", "properties": { "id": 160, "NAME": "KIMS Kollam Multispecialty Hospital India Pvt. Ltd.", "Address": "KIMS Kollam Multispecialty Hospital India Pvt. Ltd.", "District": "Kollam", "Test Type": "ANTIGEN", "FullAddress": "KIMS Kollam Multispecialty Hospital India Pvt. Ltd.  Kollam", "Lab Type": "Private Lab" }, "geometry": { "type": "Point", "coordinates": [ 76.766212, 8.906271 ] } },
{ "type": "Feature", "properties": { "id": 161, "NAME": "Padmavathy Medical Foundation", "Address": "Padmavathy Medical Foundation Manakkara Sasthamcotta P.O. Kollam", "District": "Kollam", "Test Type": "ANTIGEN", "FullAddress": "Padmavathy Medical Foundation Manakkara Sasthamcotta P.O. Kollam  Kollam", "Lab Type": "Private Lab" }, "geometry": { "type": "Point", "coordinates": [ 76.643791, 8.868801 ] } },
{ "type": "Feature", "properties": { "id": 162, "NAME": "St Josephs Mission Hospital Anchal Kollam", "Address": "St Josephs Mission Hospital Anchal Kollam", "District": "Kollam", "Test Type": "ANTIGEN", "FullAddress": "St Josephs Mission Hospital Anchal Kollam  Kollam", "Lab Type": "Private Lab" }, "geometry": { "type": "Point", "coordinates": [ 76.9180392, 8.9294212 ] } },
{ "type": "Feature", "properties": { "id": 163, "NAME": "UPASANA HOSPITAL", "Address": "UPASANA HOSPITAL  Q S Road Kollam", "District": "Kollam", "Test Type": "ANTIGEN", "FullAddress": "UPASANA HOSPITAL  Q S Road Kollam  Kollam", "Lab Type": "Private Lab" }, "geometry": { "type": "Point", "coordinates": [ 76.596861, 8.888766 ] } },
{ "type": "Feature", "properties": { "id": 164, "NAME": "BIOVISION CLINICAL LAB", "Address": "BIOVISION CLINICAL LAB  NEAR SBI  MC ROAD  VALAKOM  KOTTARAKKARA", "District": "Kollam", "Test Type": "ANTIGEN", "FullAddress": "BIOVISION CLINICAL LAB  NEAR SBI  MC ROAD  VALAKOM  KOTTARAKKARA  Kollam", "Lab Type": "Private Lab" }, "geometry": { "type": "Point", "coordinates": [ 76.600777, 8.895683 ] } },
{ "type": "Feature", "properties": { "id": 165, "NAME": "Quality Care Diagnostic Centre", "Address": "Quality Care Diagnostic Centre  Town Plaza  Pulamon  Kottarakkara", "District": "Kollam", "Test Type": "ANTIGEN", "FullAddress": "Quality Care Diagnostic Centre  Town Plaza  Pulamon  Kottarakkara  Kollam", "Lab Type": "Private Lab" }, "geometry": { "type": "Point", "coordinates": [ 76.924767, 9.018006 ] } },
{ "type": "Feature", "properties": { "id": 166, "NAME": "VIJAYA HOSPITAL", "Address": "VIJAYA HOSPITAL PULAMON P O KOTTARAKKARA", "District": "Kollam", "Test Type": "ANTIGEN", "FullAddress": "VIJAYA HOSPITAL PULAMON P O KOTTARAKKARA  Kollam", "Lab Type": "Private Lab" }, "geometry": { "type": "Point", "coordinates": [ 76.610283, 8.887522 ] } },
{ "type": "Feature", "properties": { "id": 167, "NAME": "Bishop benziger Hospital", "Address": "Bishop benziger Hospital  Beach Road  Kollam", "District": "Kollam", "Test Type": "ANTIGEN", "FullAddress": "Bishop benziger Hospital  Beach Road  Kollam  Kollam", "Lab Type": "Private Lab" }, "geometry": { "type": "Point", "coordinates": [ 76.5932034, 8.8811141 ] } },
{ "type": "Feature", "properties": { "id": 168, "NAME": "Poyanil Hospital Punalur", "Address": "Poyanil Hospital Punalur", "District": "Kollam", "Test Type": "ANTIGEN", "FullAddress": "Poyanil Hospital Punalur  Kollam", "Lab Type": "Private Lab" }, "geometry": { "type": "Point", "coordinates": [ 76.9098598, 9.0201408 ] } },
{ "type": "Feature", "properties": { "id": 169, "NAME": "Pazhaveedu Medical Care Specialty Hospital", "Address": "Pazhaveedu Medical Care Specialty Hospital  Pulamon PO  Kottarakkara", "District": "Kollam", "Test Type": "ANTIGEN", "FullAddress": "Pazhaveedu Medical Care Specialty Hospital  Pulamon PO  Kottarakkara  Kollam", "Lab Type": "Private Lab" }, "geometry": { "type": "Point", "coordinates": [ 76.588207, 8.900546 ] } },
{ "type": "Feature", "properties": { "id": 170, "NAME": "DDRC SRL Diagnostics Private Limited", "Address": "DDRC SRL Diagnostics Private Limited Gandhi Nagar Kottayam", "District": "Kollam", "Test Type": "ANTIGEN", "FullAddress": "DDRC SRL Diagnostics Private Limited Gandhi Nagar Kottayam", "Lab Type": "Private Lab" }, "geometry": { "type": "Point", "coordinates": [ 76.5394556, 9.6254361 ] } },
{ "type": "Feature", "properties": { "id": 171, "NAME": "Azeezia Medical College Hospital", "Address": "Azeezia Medical College Hospital  Meeyannoor", "District": "Kollam", "Test Type": "ANTIGEN", "FullAddress": "Azeezia Medical College Hospital  Meeyannoor  Kollam", "Lab Type": "Private Lab" }, "geometry": { "type": "Point", "coordinates": [ 76.737682, 8.889542 ] } },
{ "type": "Feature", "properties": { "id": 172, "NAME": "Bharath Hospital", "Address": "Bharath Hospital  Kottayam", "District": "Kottayam", "Test Type": "ANTIGEN", "FullAddress": "Bharath Hospital  Kottayam  Kottayam", "Lab Type": "Private Lab" }, "geometry": { "type": "Point", "coordinates": [ 76.5195727, 9.5894925 ] } },
{ "type": "Feature", "properties": { "id": 173, "NAME": "St. Thomas Hospital", "Address": "St. Thomas Hospital  Chethipuzha  Changanassery", "District": "Kottayam", "Test Type": "ANTIGEN", "FullAddress": "St. Thomas Hospital  Chethipuzha  Changanassery  Kottayam", "Lab Type": "Private Lab" }, "geometry": { "type": "Point", "coordinates": [ 76.5523465, 9.4625088 ] } },
{ "type": "Feature", "properties": { "id": 174, "NAME": "Little Lourdes Mission Hospital Kidangoor Kottayam", "Address": "Little Lourdes Mission Hospital Kidangoor Kottayam", "District": "Kottayam", "Test Type": "ANTIGEN", "FullAddress": "Little Lourdes Mission Hospital Kidangoor Kottayam", "Lab Type": "Private Lab" }, "geometry": { "type": "Point", "coordinates": [ 76.6122194, 9.6835889 ] } },
{ "type": "Feature", "properties": { "id": 175, "NAME": "HOLY GHOST MISSION HOSPITAL", "Address": "HOLY GHOST MISSION HOSPITAL  KOTTAYAM", "District": "Kottayam", "Test Type": "ANTIGEN", "FullAddress": "HOLY GHOST MISSION HOSPITAL  KOTTAYAM  Kottayam", "Lab Type": "Private Lab" }, "geometry": { "type": "Point", "coordinates": [ 76.4997662, 9.7572053 ] } },
{ "type": "Feature", "properties": { "id": 176, "NAME": "Marian Medical Centre", "Address": "Marian Medical Centre  Arunapuram P.O Pala", "District": "Kottayam", "Test Type": "ANTIGEN", "FullAddress": "Marian Medical Centre  Arunapuram P.O Pala  Kottayam", "Lab Type": "Private Lab" }, "geometry": { "type": "Point", "coordinates": [ 76.529395, 9.593534 ] } },
{ "type": "Feature", "properties": { "id": 177, "NAME": "MERCY HOSPITAL POTHY", "Address": "MERCY HOSPITAL POTHY Thalayolaparambu", "District": "Kottayam", "Test Type": "ANTIGEN", "FullAddress": "MERCY HOSPITAL POTHY Thalayolaparambu  Kottayam", "Lab Type": "Private Lab" }, "geometry": { "type": "Point", "coordinates": [ 76.707593, 9.617695 ] } },
{ "type": "Feature", "properties": { "id": 178, "NAME": "Marsleeva Medicity Palai", "Address": "Marsleeva Medicity Palai", "District": "Kottayam", "Test Type": "ANTIGEN", "FullAddress": "Marsleeva Medicity Palai  Kottayam", "Lab Type": "Private Lab" }, "geometry": { "type": "Point", "coordinates": [ 76.64412, 9.679821 ] } },
{ "type": "Feature", "properties": { "id": 179, "NAME": "SH Medical Centre ", "Address": "SH Medical Centre  Nagampadom  Kottayam", "District": "Kottayam", "Test Type": "ANTIGEN", "FullAddress": "SH Medical Centre  Nagampadom  Kottayam  Kottayam", "Lab Type": "Private Lab" }, "geometry": { "type": "Point", "coordinates": [ 76.529395, 9.593534 ] } },
{ "type": "Feature", "properties": { "id": 180, "NAME": "Aravinda Hospitals", "Address": "Aravinda Hospitals  Ponkunnam  Kottayam", "District": "Kottayam", "Test Type": "ANTIGEN", "FullAddress": "Aravinda Hospitals  Ponkunnam  Kottayam", "Lab Type": "Private Lab" }, "geometry": { "type": "Point", "coordinates": [ 76.7644611, 9.557725 ] } },
{ "type": "Feature", "properties": { "id": 181, "NAME": "Indo American Hospital", "Address": "Indo American Hospital  Kottayam.", "District": "Kottayam", "Test Type": "ANTIGEN", "FullAddress": "Indo American Hospital  Kottayam.  Kottayam", "Lab Type": "Private Lab" }, "geometry": { "type": "Point", "coordinates": [ 76.3925812, 9.7216807 ] } },
{ "type": "Feature", "properties": { "id": 182, "NAME": "Mannam Memorial NSS Medical Mission Hospital", "Address": "Mannam Memorial NSS Medical Mission Hospital  Karukachal  Kottayam", "District": "Kottayam", "Test Type": "ANTIGEN", "FullAddress": "Mannam Memorial NSS Medical Mission Hospital  Karukachal  Kottayam", "Lab Type": "Private Lab" }, "geometry": { "type": "Point", "coordinates": [ 76.6334444, 9.4994306 ] } },
{ "type": "Feature", "properties": { "id": 183, "NAME": "KIMS BELLEROSE INSTITUTE OF MEDICAL SCIENCES", "Address": "KIMS BELLEROSE INSTITUTE OF MEDICAL SCIENCES Thoothooty Junction  Kudamaloor P.O  Kottayam", "District": "Kottayam", "Test Type": "ANTIGEN", "FullAddress": "KIMS BELLEROSE INSTITUTE OF MEDICAL SCIENCES Thoothooty Junction  Kudamaloor P.O  Kottayam  Kottayam", "Lab Type": "Private Lab" }, "geometry": { "type": "Point", "coordinates": [ 76.529574, 9.588253 ] } },
{ "type": "Feature", "properties": { "id": 184, "NAME": "Carmel Medical Centre", "Address": "Carmel Medical Centre  Kizhathadiyoor PO Pala  Kottayam", "District": "Kottayam", "Test Type": "ANTIGEN", "FullAddress": "Carmel Medical Centre  Kizhathadiyoor PO Pala  Kottayam  Kottayam", "Lab Type": "Private Lab" }, "geometry": { "type": "Point", "coordinates": [ 76.662176, 9.706096 ] } },
{ "type": "Feature", "properties": { "id": 185, "NAME": "IHM Hospital", "Address": "IHM Hospital  Bharananganam  Kottayam", "District": "Kottayam", "Test Type": "ANTIGEN", "FullAddress": "IHM Hospital  Bharananganam  Kottayam  Kottayam", "Lab Type": "Private Lab" }, "geometry": { "type": "Point", "coordinates": [ 76.7192486, 9.704762 ] } },
{ "type": "Feature", "properties": { "id": 186, "NAME": "Velankanni Matha Private Hospitals Pvt Ltd", "Address": "Velankanni Matha Private Hospitals Pvt Ltd  Thellakom  Kottayam", "District": "Kottayam", "Test Type": "ANTIGEN", "FullAddress": "Velankanni Matha Private Hospitals Pvt Ltd  Thellakom  Kottayam  Kottayam", "Lab Type": "Private Lab" }, "geometry": { "type": "Point", "coordinates": [ 76.521813, 9.592989 ] } },
{ "type": "Feature", "properties": { "id": 187, "NAME": "Indo American Hospital West Gate", "Address": "Indo American Hospital West Gate  Vaikom Kottayam", "District": "Kottayam", "Test Type": "ANTIGEN", "FullAddress": "Indo American Hospital West Gate  Vaikom Kottayam  Kottayam", "Lab Type": "Private Lab" }, "geometry": { "type": "Point", "coordinates": [ 76.398802, 9.758329 ] } },
{ "type": "Feature", "properties": { "id": 188, "NAME": "Mary Queens Mission Hospital", "Address": "Mary Queens Mission Hospital  Kanjirappally  Kottayam", "District": "Kottayam", "Test Type": "ANTIGEN", "FullAddress": "Mary Queens Mission Hospital  Kanjirappally  Kottayam  Kottayam", "Lab Type": "Private Lab" }, "geometry": { "type": "Point", "coordinates": [ 76.813982011588493, 9.55804385 ] } },
{ "type": "Feature", "properties": { "id": 189, "NAME": "M U M Hospital Monipally", "Address": "M U M Hospital Monipally  Kottayam", "District": "Kottayam", "Test Type": "ANTIGEN", "FullAddress": "M U M Hospital Monipally  Kottayam  Kottayam", "Lab Type": "Private Lab" }, "geometry": { "type": "Point", "coordinates": [ 76.563539, 9.811305 ] } },
{ "type": "Feature", "properties": { "id": 190, "NAME": "St. Vincent Hospital", "Address": "St. Vincent Hospital  Kuravilangadu", "District": "Kottayam", "Test Type": "ANTIGEN", "FullAddress": "St. Vincent Hospital  Kuravilangadu  Kottayam", "Lab Type": "Private Lab" }, "geometry": { "type": "Point", "coordinates": [ 76.562982, 9.751363 ] } },
{ "type": "Feature", "properties": { "id": 191, "NAME": "Caritas Hospital", "Address": "Caritas Hospital Thellakom  Kottayam", "District": "Kottayam", "Test Type": "ANTIGEN", "FullAddress": "Caritas Hospital Thellakom  Kottayam  Kottayam", "Lab Type": "Private Lab" }, "geometry": { "type": "Point", "coordinates": [ 76.549316, 9.64525 ] } },
{ "type": "Feature", "properties": { "id": 192, "NAME": "Mitera Hospitals Pvt Ltd", "Address": "Mitera Hospitals Pvt Ltd  Thellakom. P O  Kottayam", "District": "Kottayam", "Test Type": "ANTIGEN", "FullAddress": "Mitera Hospitals Pvt Ltd  Thellakom. P O  Kottayam  Kottayam", "Lab Type": "Private Lab" }, "geometry": { "type": "Point", "coordinates": [ 76.521813, 9.592989 ] } },
{ "type": "Feature", "properties": { "id": 193, "NAME": "PMC Hospital", "Address": "PMC Hospital  Erattupetta  Kottayam", "District": "Kottayam", "Test Type": "ANTIGEN", "FullAddress": "PMC Hospital  Erattupetta  Kottayam  Kottayam", "Lab Type": "Private Lab" }, "geometry": { "type": "Point", "coordinates": [ 76.782115857239702, 9.6856663 ] } },
{ "type": "Feature", "properties": { "id": 194, "NAME": "Base Hospital", "Address": "Base Hospital  Manarcadu  Kottayam", "District": "Kottayam", "Test Type": "ANTIGEN", "FullAddress": "Base Hospital  Manarcadu  Kottayam  Kottayam", "Lab Type": "Private Lab" }, "geometry": { "type": "Point", "coordinates": [ 76.578054, 9.590942 ] } },
{ "type": "Feature", "properties": { "id": 195, "NAME": "Paret Mar Ivanios Hospital", "Address": "Paret Mar Ivanios Hospital  Puthuppally Kottayam", "District": "Kottayam", "Test Type": "ANTIGEN", "FullAddress": "Paret Mar Ivanios Hospital  Puthuppally Kottayam  Kottayam", "Lab Type": "Private Lab" }, "geometry": { "type": "Point", "coordinates": [ 76.5666789, 9.5531815 ] } },
{ "type": "Feature", "properties": { "id": 196, "NAME": "Mar Kavukatt Memorial Hospital", "Address": "Mar Kavukatt Memorial Hospital Pravithanam Kottayam", "District": "Kottayam", "Test Type": "ANTIGEN", "FullAddress": "Mar Kavukatt Memorial Hospital Pravithanam Kottayam  Kottayam", "Lab Type": "Private Lab" }, "geometry": { "type": "Point", "coordinates": [ 76.703386, 9.7473158 ] } },
{ "type": "Feature", "properties": { "id": 197, "NAME": "Cherupushpam Trust Hospital", "Address": "Cherupushpam Trust Hospital  Pala  Kottayam", "District": "Kottayam", "Test Type": "ANTIGEN", "FullAddress": "Cherupushpam Trust Hospital  Pala  Kottayam  Kottayam", "Lab Type": "Private Lab" }, "geometry": { "type": "Point", "coordinates": [ 76.564662, 9.762057 ] } },
{ "type": "Feature", "properties": { "id": 198, "NAME": "DSH Hospital", "Address": "DSH Hospital  Kalatipady  Kottayam", "District": "Kottayam", "Test Type": "ANTIGEN", "FullAddress": "DSH Hospital  Kalatipady  Kottayam  Kottayam", "Lab Type": "Private Lab" }, "geometry": { "type": "Point", "coordinates": [ 76.549316, 9.64525 ] } },
{ "type": "Feature", "properties": { "id": 199, "NAME": "Assissi Hospital", "Address": "Assissi Hospital  Mukkoottuthura  Erumeli  Kottayam", "District": "Kottayam", "Test Type": "ANTIGEN", "FullAddress": "Assissi Hospital  Mukkoottuthura  Erumeli  Kottayam  Kottayam", "Lab Type": "Private Lab" }, "geometry": { "type": "Point", "coordinates": [ 76.431201, 9.821518 ] } },
{ "type": "Feature", "properties": { "id": 200, "NAME": "Rani Hospital", "Address": "Rani Hospital  Kanjirappally  Kottayam", "District": "Kottayam", "Test Type": "ANTIGEN", "FullAddress": "Rani Hospital  Kanjirappally  Kottayam  Kottayam", "Lab Type": "Private Lab" }, "geometry": { "type": "Point", "coordinates": [ 76.801653096198095, 9.55927465 ] } },
{ "type": "Feature", "properties": { "id": 201, "NAME": "Dianova Laboratories", "Address": "Dianova Laboratories   Gandhi Nagar  Kottayam", "District": "Kottayam", "Test Type": "ANTIGEN", "FullAddress": "Dianova Laboratories   Gandhi Nagar  Kottayam  Kottayam", "Lab Type": "Private Lab" }, "geometry": { "type": "Point", "coordinates": [ 76.77544, 9.629778 ] } },
{ "type": "Feature", "properties": { "id": 202, "NAME": "Dharmagiri St.Joseph Hospital", "Address": "Dharmagiri St.Joseph Hospital  Mukkam", "District": "Kottayam", "Test Type": "ANTIGEN", "FullAddress": "Dharmagiri St.Joseph Hospital  Mukkam", "Lab Type": "Private Lab" }, "geometry": { "type": "Point", "coordinates": [ 75.9858639, 11.3309944 ] } },
{ "type": "Feature", "properties": { "id": 203, "NAME": "Alphonsa Eye Hospital", "Address": "Alphonsa Eye Hospital  Pala", "District": "Kottayam", "Test Type": "ANTIGEN", "FullAddress": "Alphonsa Eye Hospital  Pala  Kottayam", "Lab Type": "Private Lab" }, "geometry": { "type": "Point", "coordinates": [ 76.6765231, 9.7088081 ] } },
{ "type": "Feature", "properties": { "id": 204, "NAME": "Kadampuzha Hospital", "Address": "Kadampuzha Hospital  Kanjirappally", "District": "Kottayam", "Test Type": "ANTIGEN", "FullAddress": "Kadampuzha Hospital  Kanjirappally  Kottayam", "Lab Type": "Private Lab" }, "geometry": { "type": "Point", "coordinates": [ 76.549316, 9.64525 ] } },
{ "type": "Feature", "properties": { "id": 205, "NAME": "Udayagiri Multispecialty Hospital", "Address": "Udayagiri Multispecialty Hospital  Perunna  Changanassery", "District": "Kottayam", "Test Type": "ANTIGEN", "FullAddress": "Udayagiri Multispecialty Hospital  Perunna  Changanassery  Kottayam", "Lab Type": "Private Lab" }, "geometry": { "type": "Point", "coordinates": [ 76.545913, 9.444283 ] } },
{ "type": "Feature", "properties": { "id": 206, "NAME": "Vaikom Sathyagraha Memorial hospital", "Address": "Vaikom Sathyagraha Memorial hospital  Kottayam", "District": "Kottayam", "Test Type": "ANTIGEN", "FullAddress": "Vaikom Sathyagraha Memorial hospital  Kottayam  Kottayam", "Lab Type": "Private Lab" }, "geometry": { "type": "Point", "coordinates": [ 76.3900684, 9.7491342 ] } },
{ "type": "Feature", "properties": { "id": 207, "NAME": "NSS Medical Mission Hospital", "Address": "NSS Medical Mission Hospital  Perunna  Changanacherry  Kottayam", "District": "Kottayam", "Test Type": "ANTIGEN", "FullAddress": "NSS Medical Mission Hospital  Perunna  Changanacherry  Kottayam  Kottayam", "Lab Type": "Private Lab" }, "geometry": { "type": "Point", "coordinates": [ 76.543793, 9.439091 ] } },
{ "type": "Feature", "properties": { "id": 208, "NAME": "Meitra Hospital", "Address": "Meitra Hospital  Kozhikode", "District": "Kozhikode", "Test Type": "ANTIGEN", "FullAddress": "Meitra Hospital  Kozhikode  Kozhikode", "Lab Type": "Private Lab" }, "geometry": { "type": "Point", "coordinates": [ 75.774697190772301, 11.3017425 ] } },
{ "type": "Feature", "properties": { "id": 209, "NAME": "Baby memorial hospital", "Address": "Baby memorial hospital  Kozhikode", "District": "Kozhikode", "Test Type": "ANTIGEN", "FullAddress": "Baby memorial hospital  Kozhikode  Kozhikode", "Lab Type": "Private Lab" }, "geometry": { "type": "Point", "coordinates": [ 75.792059307382104, 11.2600608 ] } },
{ "type": "Feature", "properties": { "id": 210, "NAME": "IQRAA", "Address": "IQRAA  Kozhikode", "District": "Kozhikode", "Test Type": "ANTIGEN", "FullAddress": "IQRAA  Kozhikode  Kozhikode", "Lab Type": "Private Lab" }, "geometry": { "type": "Point", "coordinates": [ 75.7982876, 11.2863772 ] } },
{ "type": "Feature", "properties": { "id": 211, "NAME": "Malabar multispeciality centre", "Address": "Malabar multispeciality centre Eranhipalam", "District": "Kozhikode", "Test Type": "ANTIGEN", "FullAddress": "Malabar multispeciality centre Eranhipalam  Kozhikode", "Lab Type": "Private Lab" }, "geometry": { "type": "Point", "coordinates": [ 75.968945, 11.141789 ] } },
{ "type": "Feature", "properties": { "id": 212, "NAME": "Nirmala Hospital", "Address": "Nirmala Hospital  Calicut", "District": "Kozhikode", "Test Type": "ANTIGEN", "FullAddress": "Nirmala Hospital  Calicut  Kozhikode", "Lab Type": "Private Lab" }, "geometry": { "type": "Point", "coordinates": [ 75.824588, 11.291804 ] } },
{ "type": "Feature", "properties": { "id": 213, "NAME": "Starcare Hospital", "Address": "Starcare Hospital  Kozhikode", "District": "Kozhikode", "Test Type": "ANTIGEN", "FullAddress": "Starcare Hospital  Kozhikode  Kozhikode", "Lab Type": "Private Lab" }, "geometry": { "type": "Point", "coordinates": [ 75.809456252789303, 11.2690819 ] } },
{ "type": "Feature", "properties": { "id": 214, "NAME": "Saroj Diagnostic Laboratory", "Address": "Saroj Diagnostic Laboratory  Malaparamba  Kozhikode", "District": "Kozhikode", "Test Type": "ANTIGEN", "FullAddress": "Saroj Diagnostic Laboratory  Malaparamba  Kozhikode", "Lab Type": "Private Lab" }, "geometry": { "type": "Point", "coordinates": [ 75.8006472, 11.2882 ] } },
{ "type": "Feature", "properties": { "id": 215, "NAME": "ASTER MIMS Kozhikode", "Address": "ASTER MIMS Kozhikode", "District": "Kozhikode", "Test Type": "ANTIGEN", "FullAddress": "ASTER MIMS Kozhikode  Kozhikode", "Lab Type": "Private Lab" }, "geometry": { "type": "Point", "coordinates": [ 75.805073, 11.278596 ] } },
{ "type": "Feature", "properties": { "id": 216, "NAME": "IQRAA Community hospital thottilpalam", "Address": "IQRAA Community hospital thottilpalam  Kozhikode", "District": "Kozhikode", "Test Type": "ANTIGEN", "FullAddress": "IQRAA Community hospital thottilpalam  Kozhikode", "Lab Type": "Private Lab" }, "geometry": { "type": "Point", "coordinates": [ 75.7721111, 11.6730417 ] } },
{ "type": "Feature", "properties": { "id": 217, "NAME": "AZA DIAGNOSTIC CENTRE", "Address": "AZA DIAGNOSTIC CENTRE", "District": "Kozhikode", "Test Type": "ANTIGEN", "FullAddress": "AZA DIAGNOSTIC CENTRE", "Lab Type": "Private Lab" }, "geometry": { "type": "Point", "coordinates": [ 75.7889778, 11.2555028 ] } },
{ "type": "Feature", "properties": { "id": 218, "NAME": "MicroHealth Laboratories", "Address": "MicroHealth Laboratories  Arayidathupalam  Kozhikode", "District": "Kozhikode", "Test Type": "ANTIGEN", "FullAddress": "MicroHealth Laboratories  Arayidathupalam  Kozhikode  Kozhikode", "Lab Type": "Private Lab" }, "geometry": { "type": "Point", "coordinates": [ 75.805073, 11.278596 ] } },
{ "type": "Feature", "properties": { "id": 219, "NAME": "Santhi Hospital", "Address": "Santhi Hospital  Omassery  Kozhikode", "District": "Kozhikode", "Test Type": "ANTIGEN", "FullAddress": "Santhi Hospital  Omassery  Kozhikode  Kozhikode", "Lab Type": "Private Lab" }, "geometry": { "type": "Point", "coordinates": [ 75.9646573, 11.3626369 ] } },
{ "type": "Feature", "properties": { "id": 220, "NAME": "Chest Hospital", "Address": "Chest Hospital  Pavamani Road  Kozhikode", "District": "Kozhikode", "Test Type": "ANTIGEN", "FullAddress": "Chest Hospital  Pavamani Road  Kozhikode  Kozhikode", "Lab Type": "Private Lab" }, "geometry": { "type": "Point", "coordinates": [ 75.784093, 11.25519 ] } },
{ "type": "Feature", "properties": { "id": 221, "NAME": "KMCT Medical College Hospital", "Address": "KMCT Medical College Hospital Manassery(P Mukkam(Via", "District": "Kozhikode", "Test Type": "ANTIGEN", "FullAddress": "KMCT Medical College Hospital Manassery(P Mukkam(Via  Kozhikode", "Lab Type": "Private Lab" }, "geometry": { "type": "Point", "coordinates": [ 75.97062, 11.326108 ] } },
{ "type": "Feature", "properties": { "id": 222, "NAME": "Asten Specialty Orthopaedic Hospital", "Address": "Asten Specialty Orthopaedic Hospital  Pantheerankavu  Kozhikode", "District": "Kozhikode", "Test Type": "ANTIGEN", "FullAddress": "Asten Specialty Orthopaedic Hospital  Pantheerankavu  Kozhikode", "Lab Type": "Private Lab" }, "geometry": { "type": "Point", "coordinates": [ 75.8514917, 11.2317639 ] } },
{ "type": "Feature", "properties": { "id": 223, "NAME": "Malabar Medical College & Research Centre", "Address": "Malabar Medical College & Research Centre  Kozhikode", "District": "Kozhikode", "Test Type": "ANTIGEN", "FullAddress": "Malabar Medical College & Research Centre  Kozhikode  Kozhikode", "Lab Type": "Private Lab" }, "geometry": { "type": "Point", "coordinates": [ 75.7762529, 11.4335599 ] } },
{ "type": "Feature", "properties": { "id": 224, "NAME": "DDRC SRL Diagnostics Pvt Ltd", "Address": "DDRC SRL Diagnostics Pvt Ltd  Sana Tower  Devagiri College Road  Medical College PO. Calict", "District": "Kozhikode", "Test Type": "ANTIGEN", "FullAddress": "DDRC SRL Diagnostics Pvt Ltd  Sana Tower  Devagiri College Road  Medical College PO. Calict", "Lab Type": "Private Lab" }, "geometry": { "type": "Point", "coordinates": [ 75.8371806, 11.2698917 ] } },
{ "type": "Feature", "properties": { "id": 225, "NAME": "Koduvally Institute of Medical Science", "Address": "Koduvally Institute of Medical Science  Pvt  Ltd", "District": "Kozhikode", "Test Type": "ANTIGEN", "FullAddress": "Koduvally Institute of Medical Science  Pvt  Ltd  Kozhikode", "Lab Type": "Private Lab" }, "geometry": { "type": "Point", "coordinates": [ 76.005711, 11.801847 ] } },
{ "type": "Feature", "properties": { "id": 226, "NAME": "EMS Co-op hospital", "Address": "EMS Co-op hospital  Mukkam", "District": "Kozhikode", "Test Type": "ANTIGEN", "FullAddress": "EMS Co-op hospital  Mukkam  Kozhikode", "Lab Type": "Private Lab" }, "geometry": { "type": "Point", "coordinates": [ 75.991861, 11.325945 ] } },
{ "type": "Feature", "properties": { "id": 227, "NAME": "Aliya Diagnostic and Research Centre", "Address": "Aliya Diagnostic and Research Centre Medical College  Kozhikode", "District": "Kozhikode", "Test Type": "ANTIGEN", "FullAddress": "Aliya Diagnostic and Research Centre Medical College  Kozhikode  Kozhikode", "Lab Type": "Private Lab" }, "geometry": { "type": "Point", "coordinates": [ 75.849134, 11.554621 ] } },
{ "type": "Feature", "properties": { "id": 228, "NAME": "Asha Hospital", "Address": "Asha Hospital  Vadakara  Kozhikode", "District": "Kozhikode", "Test Type": "ANTIGEN", "FullAddress": "Asha Hospital  Vadakara  Kozhikode  Kozhikode", "Lab Type": "Private Lab" }, "geometry": { "type": "Point", "coordinates": [ 75.5898404, 11.6046063 ] } },
{ "type": "Feature", "properties": { "id": 229, "NAME": "ASWINI DIAGNOSTIC SERVICES", "Address": "ASWINI DIAGNOSTIC SERVICES  Chinthavalappu KOZHIKODE", "District": "Kozhikode", "Test Type": "ANTIGEN", "FullAddress": "ASWINI DIAGNOSTIC SERVICES  Chinthavalappu KOZHIKODE", "Lab Type": "Private Lab" }, "geometry": { "type": "Point", "coordinates": [ 75.7880278, 11.2517389 ] } },
{ "type": "Feature", "properties": { "id": 230, "NAME": "Cradle Calicut ", "Address": "Cradle Calicut  Maternity Care Pvt Limited  Calicut", "District": "Kozhikode", "Test Type": "ANTIGEN", "FullAddress": "Cradle Calicut  Maternity Care Pvt Limited  Calicut  Kozhikode", "Lab Type": "Private Lab" }, "geometry": { "type": "Point", "coordinates": [ 75.843912, 11.553887 ] } },
{ "type": "Feature", "properties": { "id": 231, "NAME": "MVR Cancer Centre & Research Institute", "Address": "MVR Cancer Centre & Research Institute Calicut", "District": "Kozhikode", "Test Type": "ANTIGEN", "FullAddress": "MVR Cancer Centre & Research Institute Calicut  Kozhikode", "Lab Type": "Private Lab" }, "geometry": { "type": "Point", "coordinates": [ 75.9468168, 11.2945142 ] } },
{ "type": "Feature", "properties": { "id": 232, "NAME": "RED CRESCENT HOSPITAL", "Address": "RED CRESCENT HOSPITAL  Feroke", "District": "Kozhikode", "Test Type": "ANTIGEN", "FullAddress": "RED CRESCENT HOSPITAL  Feroke  Kozhikode", "Lab Type": "Private Lab" }, "geometry": { "type": "Point", "coordinates": [ 75.84823, 11.182548 ] } },
{ "type": "Feature", "properties": { "id": 233, "NAME": "R Cell Diagnostics", "Address": "R Cell Diagnostics  Arayidathupalam  Kozhikode", "District": "Kozhikode", "Test Type": "ANTIGEN", "FullAddress": "R Cell Diagnostics  Arayidathupalam  Kozhikode  Kozhikode", "Lab Type": "Private Lab" }, "geometry": { "type": "Point", "coordinates": [ 75.805073, 11.278596 ] } },
{ "type": "Feature", "properties": { "id": 234, "NAME": "Metromed International Cardiac Centre", "Address": "Metromed International Cardiac Centre  Thondayad Bypass Road  G A College P O Kozhikode  Kerala", "District": "Kozhikode", "Test Type": "ANTIGEN", "FullAddress": "Metromed International Cardiac Centre  Thondayad Bypass Road  G A College P O Kozhikode  Kerala  Kozhikode", "Lab Type": "Private Lab" }, "geometry": { "type": "Point", "coordinates": [ 75.836078, 11.245356 ] } },
{ "type": "Feature", "properties": { "id": 235, "NAME": "KARUNYA HEALTH CARE", "Address": "KARUNYA HEALTH CARE  Jafar Khan Colony road  Calicut -6", "District": "Kozhikode", "Test Type": "ANTIGEN", "FullAddress": "KARUNYA HEALTH CARE  Jafar Khan Colony road  Calicut -6  Kozhikode", "Lab Type": "Private Lab" }, "geometry": { "type": "Point", "coordinates": [ 75.834387, 11.479802 ] } },
{ "type": "Feature", "properties": { "id": 236, "NAME": "Ceeyam Hospital", "Address": "Ceeyam Hospital  V O Road  Vatakara", "District": "Kozhikode", "Test Type": "ANTIGEN", "FullAddress": "Ceeyam Hospital  V O Road  Vatakara  Kozhikode", "Lab Type": "Private Lab" }, "geometry": { "type": "Point", "coordinates": [ 75.805073, 11.278596 ] } },
{ "type": "Feature", "properties": { "id": 237, "NAME": "Care Reference Laboratories.", "Address": "Care Reference Laboratories.  Velliparamba Calicut", "District": "Kozhikode", "Test Type": "ANTIGEN", "FullAddress": "Care Reference Laboratories.  Velliparamba Calicut  Kozhikode", "Lab Type": "Private Lab" }, "geometry": { "type": "Point", "coordinates": [ 75.725133, 11.393558 ] } },
{ "type": "Feature", "properties": { "id": 238, "NAME": "Lisa Hospital", "Address": "Lisa Hospital Thiruvampadi  Kozhikode", "District": "Kozhikode", "Test Type": "ANTIGEN", "FullAddress": "Lisa Hospital Thiruvampadi  Kozhikode  Kozhikode", "Lab Type": "Private Lab" }, "geometry": { "type": "Point", "coordinates": [ 76.012716, 11.361585 ] } },
{ "type": "Feature", "properties": { "id": 239, "NAME": "EMS Memorial Co-operative Hospital ", "Address": "EMS Memorial Co-operative Hospital  Perambra  Kozhikode", "District": "Kozhikode", "Test Type": "ANTIGEN", "FullAddress": "EMS Memorial Co-operative Hospital  Perambra  Kozhikode  Kozhikode", "Lab Type": "Private Lab" }, "geometry": { "type": "Point", "coordinates": [ 75.694225, 11.444566 ] } },
{ "type": "Feature", "properties": { "id": 240, "NAME": "IQRAA Community Clinic", "Address": "IQRAA Community Clinic  Kallai  Calicut", "District": "Kozhikode", "Test Type": "ANTIGEN", "FullAddress": "IQRAA Community Clinic  Kallai  Calicut  Kozhikode", "Lab Type": "Private Lab" }, "geometry": { "type": "Point", "coordinates": [ 75.834387, 11.479802 ] } },
{ "type": "Feature", "properties": { "id": 241, "NAME": "Micro Health Laboratories", "Address": "Micro Health Laboratories  MP Tower  Next to Lavanya Plaza  Near Taluk Hospital  Thamarassery  Kozhikode", "District": "Kozhikode", "Test Type": "ANTIGEN", "FullAddress": "Micro Health Laboratories  MP Tower  Next to Lavanya Plaza  Near Taluk Hospital  Thamarassery  Kozhikode", "Lab Type": "Private Lab" }, "geometry": { "type": "Point", "coordinates": [ 75.7946833, 11.2583139 ] } },
{ "type": "Feature", "properties": { "id": 242, "NAME": "Fathima Hospital", "Address": "Fathima Hospital Bank Road Calicut", "District": "Kozhikode", "Test Type": "ANTIGEN", "FullAddress": "Fathima Hospital Bank Road Calicut  Kozhikode", "Lab Type": "Private Lab" }, "geometry": { "type": "Point", "coordinates": [ 75.834387, 11.479802 ] } },
{ "type": "Feature", "properties": { "id": 243, "NAME": "R.M. HOSPITAL", "Address": "R.M. HOSPITAL BEYPORE CALICUT", "District": "Kozhikode", "Test Type": "ANTIGEN", "FullAddress": "R.M. HOSPITAL BEYPORE CALICUT  Kozhikode", "Lab Type": "Private Lab" }, "geometry": { "type": "Point", "coordinates": [ 75.80703, 11.176742 ] } },
{ "type": "Feature", "properties": { "id": 244, "NAME": "Doctors Lab", "Address": "Doctors Lab  Payyoli  Kozhikode", "District": "Kozhikode", "Test Type": "ANTIGEN", "FullAddress": "Doctors Lab  Payyoli  Kozhikode  Kozhikode", "Lab Type": "Private Lab" }, "geometry": { "type": "Point", "coordinates": [ 75.6212299, 11.5159889 ] } },
{ "type": "Feature", "properties": { "id": 245, "NAME": "Amana Hospital", "Address": "Amana Hospital  Adukath PO  Kozhikode", "District": "Kozhikode", "Test Type": "ANTIGEN", "FullAddress": "Amana Hospital  Adukath PO  Kozhikode  Kozhikode", "Lab Type": "Private Lab" }, "geometry": { "type": "Point", "coordinates": [ 75.759923, 11.651943 ] } },
{ "type": "Feature", "properties": { "id": 246, "NAME": "Vadakara Co operative Hospital", "Address": "Vadakara Co operative Hospital  Kozhikode", "District": "Kozhikode", "Test Type": "ANTIGEN", "FullAddress": "Vadakara Co operative Hospital  Kozhikode  Kozhikode", "Lab Type": "Private Lab" }, "geometry": { "type": "Point", "coordinates": [ 75.595315, 11.589687 ] } },
{ "type": "Feature", "properties": { "id": 247, "NAME": "Amal Hospitals and Research Center", "Address": "Amal Hospitals and Research Center  Perumalpuram  Thikoti  Kozhikode", "District": "Kozhikode", "Test Type": "ANTIGEN", "FullAddress": "Amal Hospitals and Research Center  Perumalpuram  Thikoti  Kozhikode  Kozhikode", "Lab Type": "Private Lab" }, "geometry": { "type": "Point", "coordinates": [ 75.62501, 11.506824 ] } },
{ "type": "Feature", "properties": { "id": 248, "NAME": "Dr.Scan Diagnostic Centre", "Address": "Dr.Scan Diagnostic Centre  A Unit of Sreekumar&Abilash Healthcare Pvt Ltd Near Arayedathupalam Mavoor Road Kozhikode", "District": "Kozhikode", "Test Type": "ANTIGEN", "FullAddress": "Dr.Scan Diagnostic Centre  A Unit of Sreekumar&Abilash Healthcare Pvt Ltd Near Arayedathupalam Mavoor Road Kozhikode  Kozhikode", "Lab Type": "Private Lab" }, "geometry": { "type": "Point", "coordinates": [ 75.795794, 11.258474 ] } },
{ "type": "Feature", "properties": { "id": 249, "NAME": "DOCTORS LAB", "Address": "DOCTORS LAB Near CHC Meladi  Perumal Puram  Thikkoti PO KOZHIKODE", "District": "Kozhikode", "Test Type": "ANTIGEN", "FullAddress": "DOCTORS LAB Near CHC Meladi  Perumal Puram  Thikkoti PO KOZHIKODE", "Lab Type": "Private Lab" }, "geometry": { "type": "Point", "coordinates": [ 75.7872833, 11.2596528 ] } },
{ "type": "Feature", "properties": { "id": 250, "NAME": "Micro Diagnostics", "Address": "Micro Diagnostics  Opp: City Medicals  Near Old Bus Stand  Kuttiadi  Kozhikode", "District": "Kozhikode", "Test Type": "ANTIGEN", "FullAddress": "Micro Diagnostics  Opp: City Medicals  Near Old Bus Stand  Kuttiadi  Kozhikode  Kozhikode", "Lab Type": "Private Lab" }, "geometry": { "type": "Point", "coordinates": [ 75.620442, 11.515529 ] } },
{ "type": "Feature", "properties": { "id": 251, "NAME": "DOCTORS SPECIALTY LAB", "Address": "DOCTORS SPECIALTY LAB Near Govt Taluk Hospital  Ballusery Mukku  Vattoli Bazar", "District": "Kozhikode", "Test Type": "ANTIGEN", "FullAddress": "DOCTORS SPECIALTY LAB Near Govt Taluk Hospital  Ballusery Mukku  Vattoli Bazar  Kozhikode", "Lab Type": "Private Lab" }, "geometry": { "type": "Point", "coordinates": [ 75.828185, 11.312065 ] } },
{ "type": "Feature", "properties": { "id": 252, "NAME": "TMH Hospital", "Address": "TMH Hospital  Kottakadavu  Kadalundi  Kozhikode", "District": "Kozhikode", "Test Type": "ANTIGEN", "FullAddress": "TMH Hospital  Kottakadavu  Kadalundi  Kozhikode  Kozhikode", "Lab Type": "Private Lab" }, "geometry": { "type": "Point", "coordinates": [ 75.8375018, 11.1387853 ] } },
{ "type": "Feature", "properties": { "id": 253, "NAME": "MAK Hospitals Pvt Ltd", "Address": "MAK Hospitals Pvt Ltd  Cheruvannur  Feroke- Post  Kozhikode", "District": "Kozhikode", "Test Type": "ANTIGEN", "FullAddress": "MAK Hospitals Pvt Ltd  Cheruvannur  Feroke- Post  Kozhikode  Kozhikode", "Lab Type": "Private Lab" }, "geometry": { "type": "Point", "coordinates": [ 75.805073, 11.278596 ] } },
{ "type": "Feature", "properties": { "id": 254, "NAME": "Korambayil Hospital and Diagnostic Centre Pvt Ltd", "Address": "Korambayil Hospital and Diagnostic Centre Pvt Ltd  Manjeri", "District": "Kozhikode", "Test Type": "ANTIGEN", "FullAddress": "Korambayil Hospital and Diagnostic Centre Pvt Ltd  Manjeri", "Lab Type": "Private Lab" }, "geometry": { "type": "Point", "coordinates": [ 76.1258167, 11.1228556 ] } },
{ "type": "Feature", "properties": { "id": 255, "NAME": "Dharu Shifa", "Address": "Dharu Shifa  Kallampara  Perumugham P O  Feroke  Kozhikode", "District": "Kozhikode", "Test Type": "ANTIGEN", "FullAddress": "Dharu Shifa  Kallampara  Perumugham P O  Feroke  Kozhikode  Kozhikode", "Lab Type": "Private Lab" }, "geometry": { "type": "Point", "coordinates": [ 75.776255, 11.270665 ] } },
{ "type": "Feature", "properties": { "id": 255, "NAME": "Dharu Shifa", "Address": "Dharu Shifa  Kallampara  Perumugham P O  Feroke  Kozhikode", "District": "Kozhikode", "Test Type": "ANTIGEN", "FullAddress": "Dharu Shifa  Kallampara  Perumugham P O  Feroke  Kozhikode  Kozhikode", "Lab Type": "Private Lab" }, "geometry": { "type": "Point", "coordinates": [ 75.776255, 11.270665 ] } },
{ "type": "Feature", "properties": { "id": 256, "NAME": "KIMS AL SHIFA", "Address": "KIMS AL SHIFA  MALAPPURAM", "District": "Malappuram", "Test Type": "ANTIGEN", "FullAddress": "KIMS AL SHIFA  MALAPPURAM  Malappuram", "Lab Type": "Private Lab" }, "geometry": { "type": "Point", "coordinates": [ 76.223810736879599, 10.9845734 ] } },
{ "type": "Feature", "properties": { "id": 256, "NAME": "KIMS AL SHIFA", "Address": "KIMS AL SHIFA  MALAPPURAM", "District": "Malappuram", "Test Type": "ANTIGEN", "FullAddress": "KIMS AL SHIFA  MALAPPURAM  Malappuram", "Lab Type": "Private Lab" }, "geometry": { "type": "Point", "coordinates": [ 76.223810736879599, 10.9845734 ] } },
{ "type": "Feature", "properties": { "id": 257, "NAME": "Edappal Hospitals", "Address": "Edappal Hospitals  Malappuram", "District": "Malappuram", "Test Type": "ANTIGEN", "FullAddress": "Edappal Hospitals  Malappuram  Malappuram", "Lab Type": "Private Lab" }, "geometry": { "type": "Point", "coordinates": [ 76.0108005, 10.7820357 ] } },
{ "type": "Feature", "properties": { "id": 257, "NAME": "Edappal Hospitals", "Address": "Edappal Hospitals  Malappuram", "District": "Malappuram", "Test Type": "ANTIGEN", "FullAddress": "Edappal Hospitals  Malappuram  Malappuram", "Lab Type": "Private Lab" }, "geometry": { "type": "Point", "coordinates": [ 76.0108005, 10.7820357 ] } },
{ "type": "Feature", "properties": { "id": 258, "NAME": "IQRAA Community Hospital Vazhakkad", "Address": "IQRAA Community Hospital Vazhakkad  Malappuram", "District": "Malappuram", "Test Type": "ANTIGEN", "FullAddress": "IQRAA Community Hospital Vazhakkad  Malappuram  Malappuram", "Lab Type": "Private Lab" }, "geometry": { "type": "Point", "coordinates": [ 75.950907, 11.248108 ] } },
{ "type": "Feature", "properties": { "id": 258, "NAME": "IQRAA Community Hospital Vazhakkad", "Address": "IQRAA Community Hospital Vazhakkad  Malappuram", "District": "Malappuram", "Test Type": "ANTIGEN", "FullAddress": "IQRAA Community Hospital Vazhakkad  Malappuram  Malappuram", "Lab Type": "Private Lab" }, "geometry": { "type": "Point", "coordinates": [ 75.950907, 11.248108 ] } },